<placenames>
 <placename id="rb10" name="Friedensburg" contained-by="rb11">
  <place rank="1" score="4.051566215" scaled_type="0.6" scaled_pop="0" scaled_contained_by="0.6" scaled_contains="0" scaled_near="0" in-cc="US" long="-76.24078" lat="40.60259" type="ppl" gazref="geonames:5190554" name="Friedensburg" clusteriness="124.9877844" scaled_clusteriness="0.4515662152" clusteriness_rank="1" locality="0" distance-to-known="99999" scaled_known="0"/>
  <place rank="2" score="3.487686257" scaled_type="0.6" scaled_pop="0" scaled_contained_by="0.5" scaled_contains="0" scaled_near="0" in-cc="US" long="-75.78964" lat="40.38759" type="ppl" gazref="geonames:5204432" name="Oley" clusteriness="167.7364649" scaled_clusteriness="0.3876862571" clusteriness_rank="2" locality="0" distance-to-known="99999" scaled_known="0"/>
  <place rank="3" score="0.2" scaled_type="0.2" scaled_pop="0" scaled_contained_by="0" scaled_contains="0" scaled_near="0" in-cc="DE" long="9" lat="54.63333" type="fac" gazref="geonames:2924759" name="Friedensburg" clusteriness="1902.399291" scaled_clusteriness="0" clusteriness_rank="3" locality="0" distance-to-known="99999" scaled_known="0"/>
 </placename>
 <placename id="rb11" name="Pa" contains="rb10" abbrev-for="Pennsylvania">
  <place rank="1" score="4.251566215" scaled_type="0.8" scaled_pop="0" scaled_contained_by="0" scaled_contains="0.6" scaled_near="0" in-cc="US" long="-77.7" lat="40.8" type="civila" gazref="geonames:6254927" name="Pennsylvania" clusteriness="124.9877844" scaled_clusteriness="0.4515662152" clusteriness_rank="1" locality="0" distance-to-known="99999" scaled_known="0"/>
  <place rank="2" score="0.8" scaled_type="0.8" scaled_pop="0" scaled_contained_by="0" scaled_contains="0" scaled_near="0" in-cc="BR" long="-53" lat="-4" type="civila" gazref="geonames:3393129" name="Pará" clusteriness="5456.436174" scaled_clusteriness="0" clusteriness_rank="15" locality="0" distance-to-known="99999" scaled_known="0"/>
  <place rank="3" score="0.8" scaled_type="0.8" scaled_pop="0" scaled_contained_by="0" scaled_contains="0" scaled_near="0" in-cc="CN" long="106.55771" lat="29.56026" type="ppla" gazref="geonames:1814906" name="Chongqing" clusteriness="7826.070888" scaled_clusteriness="0" clusteriness_rank="20" locality="0" distance-to-known="99999" scaled_known="0"/>
  <place rank="4" score="0.6" scaled_type="0.6" scaled_pop="0" scaled_contained_by="0" scaled_contains="0" scaled_near="0" in-cc="CI" long="-6.83333" lat="4.78333" type="ppl" gazref="geonames:2282727" name="Pa" clusteriness="5724.959916" scaled_clusteriness="0" clusteriness_rank="17" locality="0" distance-to-known="99999" scaled_known="0"/>
  <place rank="5" score="0.6" scaled_type="0.6" scaled_pop="0" scaled_contained_by="0" scaled_contains="0" scaled_near="0" in-cc="GH" long="-1.66079" lat="6.56713" type="ppl" gazref="geonames:2296188" name="Paa" clusteriness="5430.748447" scaled_clusteriness="0" clusteriness_rank="13" locality="0" distance-to-known="99999" scaled_known="0"/>
  <place rank="6" score="0.6" scaled_type="0.6" scaled_pop="0" scaled_contained_by="0" scaled_contains="0" scaled_near="0" in-cc="CN" long="106.51944" lat="29.385" type="ppl" gazref="geonames:1785964" name="Yudong" clusteriness="7839.275429" scaled_clusteriness="0" clusteriness_rank="21" locality="0" distance-to-known="99999" scaled_known="0"/>
  <place rank="7" score="0.6" scaled_type="0.6" scaled_pop="0" scaled_contained_by="0" scaled_contains="0" scaled_near="0" in-cc="BF" long="-3.25719" lat="11.54542" type="ppl" gazref="geonames:2356766" name="Pâ" clusteriness="4911.919478" scaled_clusteriness="0" clusteriness_rank="10" locality="0" distance-to-known="99999" scaled_known="0"/>
  <place rank="8" score="0.6" scaled_type="0.6" scaled_pop="0" scaled_contained_by="0" scaled_contains="0" scaled_near="0" in-cc="ML" long="-3.86459" lat="14.2148" type="ppl" gazref="geonames:2452152" name="Pa" clusteriness="4632.323675" scaled_clusteriness="0" clusteriness_rank="7" locality="0" distance-to-known="99999" scaled_known="0"/>
  <place rank="9" score="0.6" scaled_type="0.6" scaled_pop="0" scaled_contained_by="0" scaled_contains="0" scaled_near="0" in-cc="CN" long="116.39361" lat="39.10833" type="ppl" gazref="geonames:1816832" name="Bazhou" clusteriness="7525.408587" scaled_clusteriness="0" clusteriness_rank="19" locality="0" distance-to-known="99999" scaled_known="0"/>
  <place rank="10" score="0.6" scaled_type="0.6" scaled_pop="0" scaled_contained_by="0" scaled_contains="0" scaled_near="0" in-cc="BF" long="-3.95" lat="12.66667" type="ppl" gazref="geonames:2356765" name="Pa" clusteriness="4803.093969" scaled_clusteriness="0" clusteriness_rank="8" locality="0" distance-to-known="99999" scaled_known="0"/>
  <place rank="11" score="0.6" scaled_type="0.6" scaled_pop="0" scaled_contained_by="0" scaled_contains="0" scaled_near="0" in-cc="NG" long="7.42602" lat="10.43315" type="ppl" gazref="geonames:2325157" name="Pa" clusteriness="4918.187333" scaled_clusteriness="0" clusteriness_rank="11" locality="0" distance-to-known="99999" scaled_known="0"/>
  <place rank="12" score="0.6" scaled_type="0.6" scaled_pop="0" scaled_contained_by="0" scaled_contains="0" scaled_near="0" in-cc="NG" long="7.31412" lat="10.85704" type="ppl" gazref="geonames:2325156" name="Pa" clusteriness="4871.34272" scaled_clusteriness="0" clusteriness_rank="9" locality="0" distance-to-known="99999" scaled_known="0"/>
  <place rank="13" score="0.6" scaled_type="0.6" scaled_pop="0" scaled_contained_by="0" scaled_contains="0" scaled_near="0" in-cc="CM" long="10.33611" lat="5.27725" type="ppl" gazref="geonames:2234779" name="Pa" clusteriness="5491.012271" scaled_clusteriness="0" clusteriness_rank="16" locality="0" distance-to-known="99999" scaled_known="0"/>
  <place rank="14" score="0.6" scaled_type="0.6" scaled_pop="0" scaled_contained_by="0" scaled_contains="0" scaled_near="0" in-cc="US" long="-88.0475" lat="30.87324" type="ppl" gazref="geonames:4082637" name="Pennsylvania" clusteriness="1516.221822" scaled_clusteriness="0" clusteriness_rank="2" locality="0" distance-to-known="99999" scaled_known="0"/>
  <place rank="15" score="0.6" scaled_type="0.6" scaled_pop="0" scaled_contained_by="0" scaled_contains="0" scaled_near="0" in-cc="CD" long="25.58617" lat="-7.35433" type="ppl" gazref="geonames:9077275" name="Pa" clusteriness="7065.872183" scaled_clusteriness="0" clusteriness_rank="18" locality="0" distance-to-known="99999" scaled_known="0"/>
  <place rank="16" score="0.4" scaled_type="0.4" scaled_pop="0" scaled_contained_by="0" scaled_contains="0" scaled_near="0" in-cc="GL" long="-52.56667" lat="71.21667" type="water" gazref="geonames:3421198" name="Paakassaa" clusteriness="3403.139004" scaled_clusteriness="0" clusteriness_rank="6" locality="0" distance-to-known="99999" scaled_known="0"/>
  <place rank="17" score="0.4" scaled_type="0.4" scaled_pop="0" scaled_contained_by="0" scaled_contains="0" scaled_near="0" in-cc="CF" long="18.03055" lat="7.92614" type="water" gazref="geonames:2386903" name="Pa" clusteriness="5257.00333" scaled_clusteriness="0" clusteriness_rank="12" locality="0" distance-to-known="99999" scaled_known="0"/>
  <place rank="18" score="0.4" scaled_type="0.4" scaled_pop="0" scaled_contained_by="0" scaled_contains="0" scaled_near="0" in-cc="CF" long="19.10705" lat="6.26954" type="water" gazref="geonames:2386900" name="Fafa" clusteriness="5455.060887" scaled_clusteriness="0" clusteriness_rank="14" locality="0" distance-to-known="99999" scaled_known="0"/>
  <place rank="19" score="0.4" scaled_type="0.4" scaled_pop="0" scaled_contained_by="0" scaled_contains="0" scaled_near="0" in-cc="US" long="-106.51447" lat="35.3692" type="water" gazref="geonames:5473303" name="Jemez River" clusteriness="2702.837583" scaled_clusteriness="0" clusteriness_rank="4" locality="0" distance-to-known="99999" scaled_known="0"/>
  <place rank="20" score="0.4" scaled_type="0.4" scaled_pop="0" scaled_contained_by="0" scaled_contains="0" scaled_near="0" in-cc="IT" long="13.58333" lat="37.81667" type="civil" gazref="geonames:2523918" name="Province of Palermo" clusteriness="1902.399291" scaled_clusteriness="0" clusteriness_rank="3" locality="0" distance-to-known="99999" scaled_known="0"/>
  
  <place rank="21" score="0.4" scaled_type="0.4" scaled_pop="0" scaled_contained_by="0" scaled_contains="0" scaled_near="0" in-cc="GL" long="-53.48333" lat="66.01667" type="water" gazref="geonames:3421200" name="Paa" clusteriness="3164.76898" scaled_clusteriness="0" clusteriness_rank="5" locality="0" distance-to-known="99999" scaled_known="0"/>
  <place rank="22" score="0" scaled_type="0" scaled_pop="0" scaled_contained_by="0" scaled_contains="0" scaled_near="0" in-cc="PH" long="120.9029" lat="14.27544" type="road" gazref="geonames:8635939" name="Pennsylvania" clusteriness="10062.42274" scaled_clusteriness="0" clusteriness_rank="22" locality="0" distance-to-known="99999" scaled_known="0"/>
 </placename>
</placenames>
