<placenames>
 <placename id="rb1" name="province of Iloilo" altname="Iloilo">
  <place rank="1" score="1.482550245" scaled_type="0.6" scaled_pop="0" scaled_contained_by="0" scaled_contains="0" scaled_near="0" in-cc="PH" long="122.56444" lat="10.69694" type="ppl" gazref="geonames:1711005" name="Iloilo City" clusteriness="17.1751093" scaled_clusteriness="0.8825502452" clusteriness_rank="4" locality="0" distance-to-known="99999" scaled_known="0"/>
  <place rank="2" score="1.354383075" scaled_type="0.4" scaled_pop="0" scaled_contained_by="0" scaled_contains="0" scaled_near="0" in-cc="PH" long="122.66667" lat="11" type="civil" gazref="geonames:1711004" name="Province of Iloilo" clusteriness="12.3376899" scaled_clusteriness="0.9543830749" clusteriness_rank="1" locality="0" distance-to-known="99999" scaled_known="0"/>
  <place rank="3" score="1.326736629" scaled_type="0.4" scaled_pop="0" scaled_contained_by="0" scaled_contains="0" scaled_near="0" in-cc="PH" long="122.55" lat="10.75" type="civil" gazref="geonames:1711003" name="Iloilo City" clusteriness="14.0128587" scaled_clusteriness="0.9267366287" clusteriness_rank="2" locality="0" distance-to-known="99999" scaled_known="0"/>
  
  <place rank="4" score="1.276109509" scaled_type="0.4" scaled_pop="0" scaled_contained_by="0" scaled_contains="0" scaled_near="0" in-cc="PH" long="122.58361" lat="10.69351" type="water" gazref="geonames:1891885" name="Iloilo River" clusteriness="17.69216506" scaled_clusteriness="0.8761095088" clusteriness_rank="5" locality="0" distance-to-known="99999" scaled_known="0"/>
  <place rank="5" score="1.082918386" scaled_type="0.2" scaled_pop="0" scaled_contained_by="0" scaled_contains="0" scaled_near="0" in-cc="PH" long="122.53333" lat="10.71667" type="fac" gazref="geonames:1711006" name="Iloilo" clusteriness="17.1460161" scaled_clusteriness="0.8829183864" clusteriness_rank="3" locality="0" distance-to-known="99999" scaled_known="0"/>
  <place rank="6" score="0.6" scaled_type="0.6" scaled_pop="0" scaled_contained_by="0" scaled_contains="0" scaled_near="0" in-cc="PG" long="150.42694" lat="-10.68857" type="ppl" gazref="geonames:2133289" name="Iloilo" clusteriness="3854.49892" scaled_clusteriness="0" clusteriness_rank="8" locality="0" distance-to-known="99999" scaled_known="0"/>
  <place rank="7" score="0.5334047274" scaled_type="0.4" scaled_pop="0" scaled_contained_by="0" scaled_contains="0" scaled_near="0" in-cc="PH" long="120.55622" lat="18.04941" type="civil" gazref="geonames:11950931" name="Acosta Poblacion" clusteriness="540.991629" scaled_clusteriness="0.1334047274" clusteriness_rank="7" locality="0" distance-to-known="99999" scaled_known="0"/>
  <place rank="8" score="0.2800244242" scaled_type="0" scaled_pop="0" scaled_contained_by="0" scaled_contains="0" scaled_near="0" in-cc="PH" long="121.07767" lat="14.31914" type="road" gazref="geonames:8577562" name="Iloilo" clusteriness="275.3918931" scaled_clusteriness="0.2800244242" clusteriness_rank="6" locality="0" distance-to-known="99999" scaled_known="0"/>
 </placename>
 <placename id="rb2" name="Philippines">
  <place rank="1" score="2.513627013" scaled_type="1" scaled_pop="1.188755742" scaled_contained_by="0" scaled_contains="0" scaled_near="0" pop="87857473" cc="PH" in-cc="PH" long="122.56155" lat="13.40882" type="country" gazref="geonames:1694008" name="Philippines" clusteriness="224.0048686" scaled_clusteriness="0.3248712713" clusteriness_rank="2" locality="0" distance-to-known="99999" scaled_known="0"/>
  <place rank="2" score="0.8070267217" scaled_type="0.6" scaled_pop="0" scaled_contained_by="0" scaled_contains="0" scaled_near="0" in-cc="PH" long="122.7627" lat="7.38327" type="ppl" gazref="geonames:9035710" name="Philippines" clusteriness="385.4309244" scaled_clusteriness="0.2070267217" clusteriness_rank="3" locality="0" distance-to-known="99999" scaled_known="0"/>
  <place rank="3" score="0.7404761669" scaled_type="0.4" scaled_pop="0" scaled_contained_by="0" scaled_contains="0" scaled_near="0" in-cc="PH" long="122" lat="13" type="rgn" gazref="geonames:1694011" name="Philippine Islands" clusteriness="208.471968" scaled_clusteriness="0.3404761669" clusteriness_rank="1" locality="0" distance-to-known="99999" scaled_known="0"/>
  <place rank="4" score="0.2" scaled_type="0.2" scaled_pop="0" scaled_contained_by="0" scaled_contains="0" scaled_near="0" in-cc="AE" long="54.37143" lat="24.48653" type="fac" gazref="geonames:8053921" name="Al FilibbÄ«n" clusteriness="7132.474401" scaled_clusteriness="0" clusteriness_rank="4" locality="0" distance-to-known="99999" scaled_known="0"/>
 </placename>
 <placename id="rb4" name="Iloilo City">
  <place rank="1" score="1.482550245" scaled_type="0.6" scaled_pop="0" scaled_contained_by="0" scaled_contains="0" scaled_near="0" in-cc="PH" long="122.56444" lat="10.69694" type="ppl" gazref="geonames:1711005" name="Iloilo City" clusteriness="17.1751093" scaled_clusteriness="0.8825502452" clusteriness_rank="2" locality="0" distance-to-known="99999" scaled_known="0"/>
  <place rank="2" score="1.326736629" scaled_type="0.4" scaled_pop="0" scaled_contained_by="0" scaled_contains="0" scaled_near="0" in-cc="PH" long="122.55" lat="10.75" type="civil" gazref="geonames:1711003" name="Iloilo City" clusteriness="14.0128587" scaled_clusteriness="0.9267366287" clusteriness_rank="1" locality="0" distance-to-known="99999" scaled_known="0"/>
 </placename>
 <placename id="rb5" name="Pototan">
  <place rank="1" score="1.6" scaled_type="0.6" scaled_pop="0" scaled_contained_by="0" scaled_contains="0" scaled_near="0" in-cc="PH" long="122.6352" lat="10.9437" type="ppl" gazref="geonames:1692817" name="Pototan" clusteriness="9.58225173" scaled_clusteriness="1" clusteriness_rank="1" locality="0" distance-to-known="99999" scaled_known="0"/>
  <place rank="2" score="1.4" scaled_type="0.4" scaled_pop="0" scaled_contained_by="0" scaled_contains="0" scaled_near="0" in-cc="PH" long="122.63187" lat="10.92957" type="civil" gazref="geonames:1692818" name="Pototan" clusteriness="9.732265893" scaled_clusteriness="1" clusteriness_rank="2" locality="0" distance-to-known="99999" scaled_known="0"/>
  <place rank="3" score="0.7944838481" scaled_type="0.6" scaled_pop="0" scaled_contained_by="0" scaled_contains="0" scaled_near="0" in-cc="PH" long="120.29313" lat="15.96124" type="ppl" gazref="geonames:7616822" name="Pototan" clusteriness="408.3497593" scaled_clusteriness="0.1944838481" clusteriness_rank="4" locality="0" distance-to-known="99999" scaled_known="0"/>
  <place rank="4" score="0.7012926682" scaled_type="0.4" scaled_pop="0" scaled_contained_by="0" scaled_contains="0" scaled_near="0" in-cc="PH" long="122.36667" lat="14.21667" type="water" gazref="geonames:1692815" name="Pototan River" clusteriness="249.6977699" scaled_clusteriness="0.3012926682" clusteriness_rank="3" locality="0" distance-to-known="99999" scaled_known="0"/>
 </placename>
 <placename id="rb6" name="Janiuay">
  <place rank="1" score="1.520194333" scaled_type="0.6" scaled_pop="0" scaled_contained_by="0" scaled_contains="0" scaled_near="0" in-cc="PH" long="122.5061" lat="10.9493" type="ppl" gazref="geonames:1710286" name="Janiuay" clusteriness="14.4414677" scaled_clusteriness="0.9201943334" clusteriness_rank="1" locality="0" distance-to-known="99999" scaled_known="0"/>
  <place rank="2" score="1.23065549" scaled_type="0.4" scaled_pop="0" scaled_contained_by="0" scaled_contains="0" scaled_near="0" in-cc="PH" long="122.42009" lat="10.99627" type="civil" gazref="geonames:1710287" name="Janiuay" clusteriness="21.81167516" scaled_clusteriness="0.8306554895" clusteriness_rank="2" locality="0" distance-to-known="99999" scaled_known="0"/>
 </placename>
 <placename id="rb9" name="Montogawe"/>
 <placename id="rb11" name="Suague River">
  <place rank="1" score="1.393882273" scaled_type="0.4" scaled_pop="0" scaled_contained_by="0" scaled_contains="0" scaled_near="0" in-cc="PH" long="122.66361" lat="10.95028" type="water" gazref="geonames:1685637" name="Suague River" clusteriness="10.28573792" scaled_clusteriness="0.9938822729" clusteriness_rank="1" locality="0" distance-to-known="99999" scaled_known="0"/>
 </placename>
</placenames>
