<placenames>
 <placename id="rb1" name="Santa Barbara">
  <place rank="1" score="1.6" scaled_type="0.6" scaled_pop="0" scaled_contained_by="0" scaled_contains="0" scaled_near="0" in-cc="PH" long="122.53444" lat="10.82306" type="ppl" gazref="geonames:1688382" name="Santa Barbara" clusteriness="5.712940017" scaled_clusteriness="1" clusteriness_rank="1" locality="0" distance-to-known="99999" scaled_known="0"/>
  <place rank="2" score="1.4" scaled_type="0.4" scaled_pop="0" scaled_contained_by="0" scaled_contains="0" scaled_near="0" in-cc="PH" long="122.55" lat="10.85" type="civil" gazref="geonames:1688386" name="Santa Barbara" clusteriness="8.103098727" scaled_clusteriness="1" clusteriness_rank="2" locality="0" distance-to-known="99999" scaled_known="0"/>
  <place rank="3" score="1.235904613" scaled_type="0.8" scaled_pop="0.4359046134" scaled_contained_by="0" scaled_contains="0" scaled_near="0" in-cc="HN" long="-88.33333" lat="15.08333" type="civila" gazref="geonames:3601689" name="Departamento de Santa Bárbara" pop="15119" clusteriness="14484.49017" scaled_clusteriness="0" clusteriness_rank="8" locality="0" distance-to-known="99999" scaled_known="0"/>
  <place rank="4" score="1.235904613" scaled_type="0.8" scaled_pop="0.4359046134" scaled_contained_by="0" scaled_contains="0" scaled_near="0" in-cc="HN" long="-88.23611" lat="14.91944" type="ppla" gazref="geonames:3601691" name="Santa Bárbara" pop="15119" clusteriness="14497.33689" scaled_clusteriness="0" clusteriness_rank="9" locality="0" distance-to-known="99999" scaled_known="0"/>
  <place rank="5" score="1.187584783" scaled_type="0.6" scaled_pop="0.5875847826" scaled_contained_by="0" scaled_contains="0" scaled_near="0" in-cc="US" long="-119.69819" lat="34.42083" type="ppl" gazref="geonames:5392952" name="Santa Barbara" pop="86681" clusteriness="11277.61798" scaled_clusteriness="0" clusteriness_rank="5" locality="0" distance-to-known="99999" scaled_known="0"/>
  <place rank="6" score="0.8359046134" scaled_type="0.4" scaled_pop="0.4359046134" scaled_contained_by="0" scaled_contains="0" scaled_near="0" in-cc="HN" long="-88.16" lat="14.9" type="civil" gazref="geonames:3601695" name="Santa Bárbara" pop="15119" clusteriness="14502.82363" scaled_clusteriness="0" clusteriness_rank="10" locality="0" distance-to-known="99999" scaled_known="0"/>
  <place rank="7" score="0.6" scaled_type="0.6" scaled_pop="0" scaled_contained_by="0" scaled_contains="0" scaled_near="0" in-cc="ES" long="-5.62055" lat="43.25456" type="ppl" gazref="geonames:3110014" name="Santa Bárbara" clusteriness="10453.93199" scaled_clusteriness="0" clusteriness_rank="4" locality="0" distance-to-known="99999" scaled_known="0"/>
  <place rank="8" score="0.6" scaled_type="0.6" scaled_pop="0" scaled_contained_by="0" scaled_contains="0" scaled_near="0" in-cc="ES" long="0.49292" lat="40.71542" type="ppl" gazref="geonames:3110016" name="Santa Bárbara" clusteriness="10145.82528" scaled_clusteriness="0" clusteriness_rank="3" locality="0" distance-to-known="99999" scaled_known="0"/>
  <place rank="9" score="0.6" scaled_type="0.6" scaled_pop="0" scaled_contained_by="0" scaled_contains="0" scaled_near="0" in-cc="CO" long="-75.56706" lat="5.87458" type="ppl" gazref="geonames:3668895" name="Santa Bárbara" clusteriness="15606.81596" scaled_clusteriness="0" clusteriness_rank="13" locality="0" distance-to-known="99999" scaled_known="0"/>
  <place rank="10" score="0.6" scaled_type="0.6" scaled_pop="0" scaled_contained_by="0" scaled_contains="0" scaled_near="0" in-cc="CV" long="-24.7" lat="14.88333" type="ppl" gazref="geonames:3374227" name="Santa Bárbara" clusteriness="13684.9507" scaled_clusteriness="0" clusteriness_rank="7" locality="0" distance-to-known="99999" scaled_known="0"/>
  <place rank="11" score="0.6" scaled_type="0.6" scaled_pop="0" scaled_contained_by="0" scaled_contains="0" scaled_near="0" in-cc="BO" long="-65.71667" lat="-21.53333" type="ppl" gazref="geonames:3904952" name="Santa Bárbara" clusteriness="16073.49523" scaled_clusteriness="0" clusteriness_rank="18" locality="0" distance-to-known="99999" scaled_known="0"/>
  <place rank="12" score="0.6" scaled_type="0.6" scaled_pop="0" scaled_contained_by="0" scaled_contains="0" scaled_near="0" in-cc="VE" long="-62.92775" lat="9.26387" type="ppl" gazref="geonames:3627551" name="Santa Barbara" clusteriness="16057.36153" scaled_clusteriness="0" clusteriness_rank="17" locality="0" distance-to-known="99999" scaled_known="0"/>
  <place rank="13" score="0.4" scaled_type="0.4" scaled_pop="0" scaled_contained_by="0" scaled_contains="0" scaled_near="0" in-cc="MX" long="-105.77151" lat="26.82071" type="civil" gazref="geonames:8581849" name="Santa Bárbara" clusteriness="12716.92802" scaled_clusteriness="0" clusteriness_rank="6" locality="0" distance-to-known="99999" scaled_known="0"/>
  <place rank="14" score="0.4" scaled_type="0.4" scaled_pop="0" scaled_contained_by="0" scaled_contains="0" scaled_near="0" in-cc="BR" long="-43.44495" lat="-20.02361" type="civil" gazref="geonames:6321743" name="Santa Bárbara" clusteriness="16127.61289" scaled_clusteriness="0" clusteriness_rank="19" locality="0" distance-to-known="99999" scaled_known="0"/>
  <place rank="15" score="0.4" scaled_type="0.4" scaled_pop="0" scaled_contained_by="0" scaled_contains="0" scaled_near="0" in-cc="BR" long="-43.13139" lat="-21.94111" type="rgn" gazref="geonames:3476735" name="Santa Bárbara" clusteriness="16004.99388" scaled_clusteriness="0" clusteriness_rank="16" locality="0" distance-to-known="99999" scaled_known="0"/>
  <place rank="16" score="0.4" scaled_type="0.4" scaled_pop="0" scaled_contained_by="0" scaled_contains="0" scaled_near="0" in-cc="CR" long="-84.15" lat="10.08333" type="civil" gazref="geonames:3621622" name="Santa Bárbara" clusteriness="14941.37838" scaled_clusteriness="0" clusteriness_rank="11" locality="0" distance-to-known="99999" scaled_known="0"/>
  <place rank="17" score="0.4" scaled_type="0.4" scaled_pop="0" scaled_contained_by="0" scaled_contains="0" scaled_near="0" in-cc="CO" long="-75.58255" lat="5.88937" type="civil" gazref="geonames:3668920" name="Santa Bárbara" clusteriness="15605.39403" scaled_clusteriness="0" clusteriness_rank="12" locality="0" distance-to-known="99999" scaled_known="0"/>
  <place rank="18" score="0.4" scaled_type="0.4" scaled_pop="0" scaled_contained_by="0" scaled_contains="0" scaled_near="0" in-cc="CW" long="-68.83115" lat="12.06794" type="mtn" gazref="geonames:3513181" name="Tafelberg" clusteriness="15677.93742" scaled_clusteriness="0" clusteriness_rank="14" locality="0" distance-to-known="99999" scaled_known="0"/>
  <place rank="19" score="0.4" scaled_type="0.4" scaled_pop="0" scaled_contained_by="0" scaled_contains="0" scaled_near="0" in-cc="BR" long="-38.99206" lat="-11.9177" type="civil" gazref="geonames:6321027" name="Santa Bárbara" clusteriness="16286.3985" scaled_clusteriness="0" clusteriness_rank="20" locality="0" distance-to-known="99999" scaled_known="0"/>
  <place rank="20" score="0.4" scaled_type="0.4" scaled_pop="0" scaled_contained_by="0" scaled_contains="0" scaled_near="0" in-cc="CO" long="-72.9103" lat="6.99278" type="civil" gazref="geonames:9179697" name="Santa Bárbara" clusteriness="15710.83334" scaled_clusteriness="0" clusteriness_rank="15" locality="0" distance-to-known="99999" scaled_known="0"/>
 </placename>
 <placename id="rb2" name="province of Iloilo" altname="Iloilo">
  <place rank="1" score="1.6" scaled_type="0.6" scaled_pop="0" scaled_contained_by="0" scaled_contains="0" scaled_near="0" in-cc="PH" long="122.56444" lat="10.69694" type="ppl" gazref="geonames:1711005" name="Iloilo City" clusteriness="3.477448725" scaled_clusteriness="1" clusteriness_rank="3" locality="0" distance-to-known="99999" scaled_known="0"/>
  <place rank="2" score="1.4" scaled_type="0.4" scaled_pop="0" scaled_contained_by="0" scaled_contains="0" scaled_near="0" in-cc="PH" long="122.58361" lat="10.69351" type="water" gazref="geonames:1891885" name="Iloilo River" clusteriness="4.426053124" scaled_clusteriness="1" clusteriness_rank="4" locality="0" distance-to-known="99999" scaled_known="0"/>
  <place rank="3" score="1.4" scaled_type="0.4" scaled_pop="0" scaled_contained_by="0" scaled_contains="0" scaled_near="0" in-cc="PH" long="122.55" lat="10.75" type="civil" gazref="geonames:1711003" name="Iloilo City" clusteriness="1.101039425" scaled_clusteriness="1" clusteriness_rank="1" locality="0" distance-to-known="99999" scaled_known="0"/>
  
  <place rank="4" score="1.399469348" scaled_type="0.4" scaled_pop="0" scaled_contained_by="0" scaled_contains="0" scaled_near="0" in-cc="PH" long="122.66667" lat="11" type="civil" gazref="geonames:1711004" name="Province of Iloilo" clusteriness="10.0244673" scaled_clusteriness="0.9994693484" clusteriness_rank="5" locality="0" distance-to-known="99999" scaled_known="0"/>
  <place rank="5" score="1.2" scaled_type="0.2" scaled_pop="0" scaled_contained_by="0" scaled_contains="0" scaled_near="0" in-cc="PH" long="122.53333" lat="10.71667" type="fac" gazref="geonames:1711006" name="Iloilo" clusteriness="3.15206763" scaled_clusteriness="1" clusteriness_rank="2" locality="0" distance-to-known="99999" scaled_known="0"/>
  <place rank="6" score="0.6" scaled_type="0.6" scaled_pop="0" scaled_contained_by="0" scaled_contains="0" scaled_near="0" in-cc="PG" long="150.42694" lat="-10.68857" type="ppl" gazref="geonames:2133289" name="Iloilo" clusteriness="3071.038894" scaled_clusteriness="0" clusteriness_rank="8" locality="0" distance-to-known="99999" scaled_known="0"/>
  <place rank="7" score="0.5636825168" scaled_type="0.4" scaled_pop="0" scaled_contained_by="0" scaled_contains="0" scaled_near="0" in-cc="PH" long="120.55622" lat="18.04941" type="civil" gazref="geonames:11950931" name="Acosta Poblacion" clusteriness="470.5816263" scaled_clusteriness="0.1636825168" clusteriness_rank="7" locality="0" distance-to-known="99999" scaled_known="0"/>
  <place rank="8" score="0.3255310481" scaled_type="0" scaled_pop="0" scaled_contained_by="0" scaled_contains="0" scaled_near="0" in-cc="PH" long="121.07767" lat="14.31914" type="road" gazref="geonames:8577562" name="Iloilo" clusteriness="223.3252885" scaled_clusteriness="0.3255310481" clusteriness_rank="6" locality="0" distance-to-known="99999" scaled_known="0"/>
 </placename>
 <placename id="rb3" name="Philippines">
  <place rank="1" score="2.512925872" scaled_type="1" scaled_pop="1.188755742" scaled_contained_by="0" scaled_contains="0" scaled_near="0" pop="87857473" cc="PH" in-cc="PH" long="122.56155" lat="13.40882" type="country" gazref="geonames:1694008" name="Philippines" clusteriness="224.7293212" scaled_clusteriness="0.32417013" clusteriness_rank="2" locality="0" distance-to-known="99999" scaled_known="0"/>
  <place rank="2" score="0.8145498728" scaled_type="0.6" scaled_pop="0" scaled_contained_by="0" scaled_contains="0" scaled_near="0" in-cc="PH" long="122.7627" lat="7.38327" type="ppl" gazref="geonames:9035710" name="Philippines" clusteriness="372.3061878" scaled_clusteriness="0.2145498728" clusteriness_rank="3" locality="0" distance-to-known="99999" scaled_known="0"/>
  <place rank="3" score="0.7566818471" scaled_type="0.4" scaled_pop="0" scaled_contained_by="0" scaled_contains="0" scaled_near="0" in-cc="PH" long="122" lat="13" type="rgn" gazref="geonames:1694011" name="Philippine Islands" clusteriness="193.4801012" scaled_clusteriness="0.3566818471" clusteriness_rank="1" locality="0" distance-to-known="99999" scaled_known="0"/>
  <place rank="4" score="0.2" scaled_type="0.2" scaled_pop="0" scaled_contained_by="0" scaled_contains="0" scaled_near="0" in-cc="AE" long="54.37143" lat="24.48653" type="fac" gazref="geonames:8053921" name="Al Filibbīn" clusteriness="6693.843376" scaled_clusteriness="0" clusteriness_rank="4" locality="0" distance-to-known="99999" scaled_known="0"/>
 </placename>
 <placename id="rb5" name="Iloilo">
  <place rank="1" score="2.317694903" scaled_type="0.6" scaled_pop="0.7176949034" scaled_contained_by="0" scaled_contains="0" scaled_near="0" in-cc="PH" long="122.56444" lat="10.69694" type="ppl" gazref="geonames:1711005" name="Iloilo City" pop="387681" clusteriness="3.477448725" scaled_clusteriness="1" clusteriness_rank="3" locality="0" distance-to-known="99999" scaled_known="0"/>
  <place rank="2" score="2.117694903" scaled_type="0.4" scaled_pop="0.7176949034" scaled_contained_by="0" scaled_contains="0" scaled_near="0" in-cc="PH" long="122.58361" lat="10.69351" type="water" gazref="geonames:1891885" name="Iloilo River" pop="387681" clusteriness="4.426053124" scaled_clusteriness="1" clusteriness_rank="4" locality="0" distance-to-known="99999" scaled_known="0"/>
  <place rank="3" score="2.117694903" scaled_type="0.4" scaled_pop="0.7176949034" scaled_contained_by="0" scaled_contains="0" scaled_near="0" in-cc="PH" long="122.55" lat="10.75" type="civil" gazref="geonames:1711003" name="Iloilo City" pop="387681" clusteriness="1.101039425" scaled_clusteriness="1" clusteriness_rank="1" locality="0" distance-to-known="99999" scaled_known="0"/>
  <place rank="4" score="2.117164252" scaled_type="0.4" scaled_pop="0.7176949034" scaled_contained_by="0" scaled_contains="0" scaled_near="0" in-cc="PH" long="122.66667" lat="11" type="civil" gazref="geonames:1711004" name="Province of Iloilo" pop="387681" clusteriness="10.0244673" scaled_clusteriness="0.9994693484" clusteriness_rank="5" locality="0" distance-to-known="99999" scaled_known="0"/>
  <place rank="5" score="1.917694903" scaled_type="0.2" scaled_pop="0.7176949034" scaled_contained_by="0" scaled_contains="0" scaled_near="0" in-cc="PH" long="122.53333" lat="10.71667" type="fac" gazref="geonames:1711006" name="Iloilo" pop="387681" clusteriness="3.15206763" scaled_clusteriness="1" clusteriness_rank="2" locality="0" distance-to-known="99999" scaled_known="0"/>
  <place rank="6" score="0.6" scaled_type="0.6" scaled_pop="0" scaled_contained_by="0" scaled_contains="0" scaled_near="0" in-cc="PG" long="150.42694" lat="-10.68857" type="ppl" gazref="geonames:2133289" name="Iloilo" clusteriness="3071.038894" scaled_clusteriness="0" clusteriness_rank="8" locality="0" distance-to-known="99999" scaled_known="0"/>
  <place rank="7" score="0.5636825168" scaled_type="0.4" scaled_pop="0" scaled_contained_by="0" scaled_contains="0" scaled_near="0" in-cc="PH" long="120.55622" lat="18.04941" type="civil" gazref="geonames:11950931" name="Acosta Poblacion" clusteriness="470.5816263" scaled_clusteriness="0.1636825168" clusteriness_rank="7" locality="0" distance-to-known="99999" scaled_known="0"/>
  <place rank="8" score="0.3255310481" scaled_type="0" scaled_pop="0" scaled_contained_by="0" scaled_contains="0" scaled_near="0" in-cc="PH" long="121.07767" lat="14.31914" type="road" gazref="geonames:8577562" name="Iloilo" clusteriness="223.3252885" scaled_clusteriness="0.3255310481" clusteriness_rank="6" locality="0" distance-to-known="99999" scaled_known="0"/>
 </placename>
 <placename id="rb6" name="Iloilo City">
  <place rank="1" score="1.6" scaled_type="0.6" scaled_pop="0" scaled_contained_by="0" scaled_contains="0" scaled_near="0" in-cc="PH" long="122.56444" lat="10.69694" type="ppl" gazref="geonames:1711005" name="Iloilo City" clusteriness="3.477448725" scaled_clusteriness="1" clusteriness_rank="2" locality="0" distance-to-known="99999" scaled_known="0"/>
  <place rank="2" score="1.4" scaled_type="0.4" scaled_pop="0" scaled_contained_by="0" scaled_contains="0" scaled_near="0" in-cc="PH" long="122.55" lat="10.75" type="civil" gazref="geonames:1711003" name="Iloilo City" clusteriness="1.101039425" scaled_clusteriness="1" clusteriness_rank="1" locality="0" distance-to-known="99999" scaled_known="0"/>
 </placename>
 <placename id="rb8" name="Province of Iloilo">
  <place rank="1" score="1.399469348" scaled_type="0.4" scaled_pop="0" scaled_contained_by="0" scaled_contains="0" scaled_near="0" in-cc="PH" long="122.66667" lat="11" type="civil" gazref="geonames:1711004" name="Province of Iloilo" clusteriness="10.0244673" scaled_clusteriness="0.9994693484" clusteriness_rank="1" locality="0" distance-to-known="99999" scaled_known="0"/>
 </placename>
 <placename id="rb11" name="Tigum River">
  <place rank="1" score="1.4" scaled_type="0.4" scaled_pop="0" scaled_contained_by="0" scaled_contains="0" scaled_near="0" in-cc="PH" long="122.53556" lat="10.77194" type="water" gazref="geonames:1682175" name="Tigon River" clusteriness="1.870549325" scaled_clusteriness="1" clusteriness_rank="1" locality="0" distance-to-known="99999" scaled_known="0"/>
  <place rank="2" score="0.8979331903" scaled_type="0.4" scaled_pop="0" scaled_contained_by="0" scaled_contains="0" scaled_near="0" in-cc="PH" long="121.8811" lat="11.8176" type="water" gazref="geonames:7406103" name="Tigum River" clusteriness="100.9563451" scaled_clusteriness="0.4979331903" clusteriness_rank="2" locality="0" distance-to-known="99999" scaled_known="0"/>
 </placename>
 <placename id="rb12" name="Aganan River">
  <place rank="1" score="1.4" scaled_type="0.4" scaled_pop="0" scaled_contained_by="0" scaled_contains="0" scaled_near="0" in-cc="PH" long="122.53333" lat="10.76667" type="water" gazref="geonames:1732186" name="Aganan River" clusteriness="1.686485501" scaled_clusteriness="1" clusteriness_rank="1" locality="0" distance-to-known="99999" scaled_known="0"/>
 </placename>
</placenames>
