<placenames>
 <placename id="rb1" name="Nako">
  <place rank="1" score="0.9735887731" scaled_type="0.6" scaled_pop="0" scaled_contained_by="0" scaled_contains="0" scaled_near="0" in-cc="IN" long="78.61825" lat="31.8888" type="ppl" gazref="geonames:1262098" name="Nako" clusteriness="178.9873976" scaled_clusteriness="0.3735887731" clusteriness_rank="1" locality="0" distance-to-known="99999" scaled_known="0"/>
  <place rank="2" score="0.8527255014" scaled_type="0.6" scaled_pop="0" scaled_contained_by="0" scaled_contains="0" scaled_near="0" in-cc="IN" long="76.1549" lat="32.80304" type="ppl" gazref="geonames:10714969" name="Nāko" clusteriness="312.2834705" scaled_clusteriness="0.2527255014" clusteriness_rank="2" locality="0" distance-to-known="99999" scaled_known="0"/>
  <place rank="3" score="0.7551137833" scaled_type="0.6" scaled_pop="0" scaled_contained_by="0" scaled_contains="0" scaled_near="0" in-cc="IN" long="83.2596" lat="24.7121" type="ppl" gazref="geonames:10516127" name="Nāko" clusteriness="489.5222467" scaled_clusteriness="0.1551137833" clusteriness_rank="3" locality="0" distance-to-known="99999" scaled_known="0"/>
  <place rank="4" score="0.6" scaled_type="0.6" scaled_pop="0" scaled_contained_by="0" scaled_contains="0" scaled_near="0" in-cc="JP" long="131.46693" lat="34.50241" type="ppl" gazref="geonames:1856067" name="Nago" clusteriness="4197.823189" scaled_clusteriness="0" clusteriness_rank="9" locality="0" distance-to-known="99999" scaled_known="0"/>
  <place rank="5" score="0.6" scaled_type="0.6" scaled_pop="0" scaled_contained_by="0" scaled_contains="0" scaled_near="0" in-cc="PG" long="146.76921" lat="-7.68264" type="ppl" gazref="geonames:2090069" name="Nako" clusteriness="7138.261636" scaled_clusteriness="0" clusteriness_rank="17" locality="0" distance-to-known="99999" scaled_known="0"/>
  <place rank="6" score="0.6" scaled_type="0.6" scaled_pop="0" scaled_contained_by="0" scaled_contains="0" scaled_near="0" in-cc="LS" long="27.76667" lat="-29.61667" type="ppl" gazref="geonames:932320" name="Nako" clusteriness="6820.506518" scaled_clusteriness="0" clusteriness_rank="16" locality="0" distance-to-known="99999" scaled_known="0"/>
  <place rank="7" score="0.6" scaled_type="0.6" scaled_pop="0" scaled_contained_by="0" scaled_contains="0" scaled_near="0" in-cc="TH" long="104.51236" lat="16.59667" type="ppl" gazref="geonames:1618521" name="Ban Kham Phueng" clusteriness="2463.131231" scaled_clusteriness="0" clusteriness_rank="4" locality="0" distance-to-known="99999" scaled_known="0"/>
  <place rank="8" score="0.6" scaled_type="0.6" scaled_pop="0" scaled_contained_by="0" scaled_contains="0" scaled_near="0" in-cc="JP" long="128.01625" lat="26.62958" type="ppl" gazref="geonames:1855706" name="Nakao" clusteriness="3874.533802" scaled_clusteriness="0" clusteriness_rank="8" locality="0" distance-to-known="99999" scaled_known="0"/>
  <place rank="9" score="0.6" scaled_type="0.6" scaled_pop="0" scaled_contained_by="0" scaled_contains="0" scaled_near="0" in-cc="BF" long="-3.05686" lat="10.63529" type="ppl" gazref="geonames:2357671" name="Nako" clusteriness="6346.479468" scaled_clusteriness="0" clusteriness_rank="13" locality="0" distance-to-known="99999" scaled_known="0"/>
  <place rank="10" score="0.6" scaled_type="0.6" scaled_pop="0" scaled_contained_by="0" scaled_contains="0" scaled_near="0" in-cc="JP" long="139.86081" lat="35.02253" type="ppl" gazref="geonames:1856066" name="Nago" clusteriness="4895.355014" scaled_clusteriness="0" clusteriness_rank="10" locality="0" distance-to-known="99999" scaled_known="0"/>
  <place rank="11" score="0.4" scaled_type="0.4" scaled_pop="0" scaled_contained_by="0" scaled_contains="0" scaled_near="0" in-cc="ID" long="97.3413" lat="0.8667" type="rgn" gazref="geonames:1215067" name="Pulau Hinako" clusteriness="3405.231932" scaled_clusteriness="0" clusteriness_rank="5" locality="0" distance-to-known="99999" scaled_known="0"/>
  <place rank="12" score="0.4" scaled_type="0.4" scaled_pop="0" scaled_contained_by="0" scaled_contains="0" scaled_near="0" in-cc="CF" long="16.35337" lat="7.34874" type="water" gazref="geonames:6857648" name="Nako" clusteriness="5367.974207" scaled_clusteriness="0" clusteriness_rank="11" locality="0" distance-to-known="99999" scaled_known="0"/>
  <place rank="13" score="0.4" scaled_type="0.4" scaled_pop="0" scaled_contained_by="0" scaled_contains="0" scaled_near="0" in-cc="BF" long="-3.91667" lat="10.2" type="water" gazref="geonames:2357670" name="Nako" clusteriness="6413.032127" scaled_clusteriness="0" clusteriness_rank="14" locality="0" distance-to-known="99999" scaled_known="0"/>
  <place rank="14" score="0.4" scaled_type="0.4" scaled_pop="0" scaled_contained_by="0" scaled_contains="0" scaled_near="0" in-cc="BA" long="17.70389" lat="43.72806" type="mtn" gazref="geonames:3344136" name="Nako" clusteriness="3517.85122" scaled_clusteriness="0" clusteriness_rank="7" locality="0" distance-to-known="99999" scaled_known="0"/>
  <place rank="15" score="0.4" scaled_type="0.4" scaled_pop="0" scaled_contained_by="0" scaled_contains="0" scaled_near="0" in-cc="BA" long="18.1376" lat="43.36245" type="rgn" gazref="geonames:3265455" name="Nako" clusteriness="3489.942971" scaled_clusteriness="0" clusteriness_rank="6" locality="0" distance-to-known="99999" scaled_known="0"/>
  <place rank="16" score="0.4" scaled_type="0.4" scaled_pop="0" scaled_contained_by="0" scaled_contains="0" scaled_near="0" in-cc="CM" long="14.43333" lat="4.91667" type="mtn" gazref="geonames:2225499" name="Nako" clusteriness="5625.771735" scaled_clusteriness="0" clusteriness_rank="12" locality="0" distance-to-known="99999" scaled_known="0"/>
  <place rank="17" score="0.4" scaled_type="0.4" scaled_pop="0" scaled_contained_by="0" scaled_contains="0" scaled_near="0" in-cc="FJ" long="177.48333" lat="-17.9" type="water" gazref="geonames:2202874" name="Nako" clusteriness="10568.88801" scaled_clusteriness="0" clusteriness_rank="19" locality="0" distance-to-known="99999" scaled_known="0"/>
  <place rank="18" score="0.4" scaled_type="0.4" scaled_pop="0" scaled_contained_by="0" scaled_contains="0" scaled_near="0" in-cc="NC" long="165.41667" lat="-21.18333" type="water" gazref="geonames:2139977" name="Nako" clusteriness="9634.5996" scaled_clusteriness="0" clusteriness_rank="18" locality="0" distance-to-known="99999" scaled_known="0"/>
  <place rank="19" score="0.4" scaled_type="0.4" scaled_pop="0" scaled_contained_by="0" scaled_contains="0" scaled_near="0" in-cc="GL" long="-55.06667" lat="72.65" type="rgn" gazref="geonames:3421781" name="Naku" clusteriness="6683.622939" scaled_clusteriness="0" clusteriness_rank="15" locality="0" distance-to-known="99999" scaled_known="0"/>
 </placename>
 <placename id="rb2" name="Himalayas">
  <place rank="1" score="0.5120886779" scaled_type="0.4" scaled_pop="0" scaled_contained_by="0" scaled_contains="0" scaled_near="0" in-cc="" long="84" lat="28" type="mtn" gazref="geonames:1252558" name="Himalayas" clusteriness="596.7915209" scaled_clusteriness="0.1120886779" clusteriness_rank="1" locality="0" distance-to-known="99999" scaled_known="0"/>
 </placename>
 <placename id="rb3" name="India">
  <place rank="1" score="2.462051971" scaled_type="1" scaled_pop="1.406706012" scaled_contained_by="0" scaled_contains="0" scaled_near="0" pop="1080264388" cc="IN" in-cc="IN" long="79" lat="22" type="country" gazref="geonames:1269750" name="India" clusteriness="775.0113843" scaled_clusteriness="0.05534595899" clusteriness_rank="1" locality="0" distance-to-known="99999" scaled_known="0"/>
  <place rank="2" score="0.6" scaled_type="0.6" scaled_pop="0" scaled_contained_by="0" scaled_contains="0" scaled_near="0" in-cc="BR" long="-41.55" lat="-15.9" type="ppl" gazref="geonames:3461295" name="Índia" clusteriness="11152.36689" scaled_clusteriness="0" clusteriness_rank="18" locality="0" distance-to-known="99999" scaled_known="0"/>
  <place rank="3" score="0.6" scaled_type="0.6" scaled_pop="0" scaled_contained_by="0" scaled_contains="0" scaled_near="0" in-cc="IT" long="12.27855" lat="46.7324" type="ppl" gazref="geonames:3168508" name="Innichen" clusteriness="3913.086433" scaled_clusteriness="0" clusteriness_rank="8" locality="0" distance-to-known="99999" scaled_known="0"/>
  <place rank="4" score="0.6" scaled_type="0.6" scaled_pop="0" scaled_contained_by="0" scaled_contains="0" scaled_near="0" in-cc="SV" long="-88.81667" lat="13.55" type="ppl" gazref="geonames:3585481" name="India" clusteriness="12527.31763" scaled_clusteriness="0" clusteriness_rank="19" locality="0" distance-to-known="99999" scaled_known="0"/>
  <place rank="5" score="0.6" scaled_type="0.6" scaled_pop="0" scaled_contained_by="0" scaled_contains="0" scaled_near="0" in-cc="US" long="-89.11116" lat="30.81713" type="ppl" gazref="geonames:4430906" name="India" clusteriness="10768.45863" scaled_clusteriness="0" clusteriness_rank="16" locality="0" distance-to-known="99999" scaled_known="0"/>
  <place rank="6" score="0.6" scaled_type="0.6" scaled_pop="0" scaled_contained_by="0" scaled_contains="0" scaled_near="0" in-cc="US" long="-96.6161" lat="32.52514" type="ppl" gazref="geonames:4699848" name="India" clusteriness="10778.85024" scaled_clusteriness="0" clusteriness_rank="17" locality="0" distance-to-known="99999" scaled_known="0"/>
  <place rank="7" score="0.6" scaled_type="0.6" scaled_pop="0" scaled_contained_by="0" scaled_contains="0" scaled_near="0" in-cc="MD" long="29.3869" lat="47.04618" type="ppl" gazref="geonames:829969" name="India" clusteriness="3192.093065" scaled_clusteriness="0" clusteriness_rank="5" locality="0" distance-to-known="99999" scaled_known="0"/>
  <place rank="8" score="0.6" scaled_type="0.6" scaled_pop="0" scaled_contained_by="0" scaled_contains="0" scaled_near="0" in-cc="GM" long="-15.75" lat="13.56667" type="ppl" gazref="geonames:2413391" name="India" clusteriness="7077.852209" scaled_clusteriness="0" clusteriness_rank="13" locality="0" distance-to-known="99999" scaled_known="0"/>
  <place rank="9" score="0.6" scaled_type="0.6" scaled_pop="0" scaled_contained_by="0" scaled_contains="0" scaled_near="0" in-cc="US" long="-88.2581" lat="36.33256" type="ppl" gazref="geonames:4050654" name="India" clusteriness="10179.68597" scaled_clusteriness="0" clusteriness_rank="15" locality="0" distance-to-known="99999" scaled_known="0"/>
  <place rank="10" score="0.6" scaled_type="0.6" scaled_pop="0" scaled_contained_by="0" scaled_contains="0" scaled_near="0" in-cc="US" long="-79.11948" lat="40.37646" type="ppl" gazref="geonames:5194768" name="India" clusteriness="9492.387456" scaled_clusteriness="0" clusteriness_rank="14" locality="0" distance-to-known="99999" scaled_known="0"/>
  <place rank="11" score="0.6" scaled_type="0.6" scaled_pop="0" scaled_contained_by="0" scaled_contains="0" scaled_near="0" in-cc="RS" long="20.08165" lat="45.04816" type="ppl" gazref="geonames:790015" name="Inđija" clusteriness="3403.79294" scaled_clusteriness="0" clusteriness_rank="6" locality="0" distance-to-known="99999" scaled_known="0"/>
  <place rank="12" score="0.6" scaled_type="0.6" scaled_pop="0" scaled_contained_by="0" scaled_contains="0" scaled_near="0" in-cc="AO" long="15.65642" lat="-13.27375" type="ppl" gazref="geonames:12328530" name="Sacaála" clusteriness="6637.925738" scaled_clusteriness="0" clusteriness_rank="12" locality="0" distance-to-known="99999" scaled_known="0"/>
  <place rank="13" score="0.6" scaled_type="0.6" scaled_pop="0" scaled_contained_by="0" scaled_contains="0" scaled_near="0" in-cc="MZ" long="36.91806" lat="-16.69639" type="ppl" gazref="geonames:1045266" name="India" clusteriness="5794.515087" scaled_clusteriness="0" clusteriness_rank="10" locality="0" distance-to-known="99999" scaled_known="0"/>
  <place rank="14" score="0.6" scaled_type="0.6" scaled_pop="0" scaled_contained_by="0" scaled_contains="0" scaled_near="0" in-cc="UG" long="33.68333" lat="2.18333" type="ppl" gazref="geonames:233279" name="Idia" clusteriness="4738.276109" scaled_clusteriness="0" clusteriness_rank="9" locality="0" distance-to-known="99999" scaled_known="0"/>
  <place rank="15" score="0.4456548818" scaled_type="0.4" scaled_pop="0" scaled_contained_by="0" scaled_contains="0" scaled_near="0" in-cc="IN" long="76.97021" lat="22.20775" type="mtn" gazref="geonames:6269134" name="Southern Asia" clusteriness="810.3828403" scaled_clusteriness="0.04565488184" clusteriness_rank="2" locality="0" distance-to-known="99999" scaled_known="0"/>
  <place rank="16" score="0.2010782136" scaled_type="0.2" scaled_pop="0" scaled_contained_by="0" scaled_contains="0" scaled_near="0" in-cc="AF" long="68.30389" lat="34.79944" type="fac" gazref="geonames:1455460" name="India" clusteriness="995.0469501" scaled_clusteriness="0.001078213556" clusteriness_rank="3" locality="0" distance-to-known="99999" scaled_known="0"/>
  <place rank="17" score="0.2" scaled_type="0.2" scaled_pop="0" scaled_contained_by="0" scaled_contains="0" scaled_near="0" in-cc="CL" long="-69.91597" lat="-27.1438" type="fac" gazref="geonames:3887266" name="India" clusteriness="14298.02826" scaled_clusteriness="0" clusteriness_rank="20" locality="0" distance-to-known="99999" scaled_known="0"/>
  <place rank="18" score="0.2" scaled_type="0.2" scaled_pop="0" scaled_contained_by="0" scaled_contains="0" scaled_near="0" in-cc="SY" long="36.27763" lat="33.51869" type="fac" gazref="geonames:8373794" name="Al Hind" clusteriness="3123.547954" scaled_clusteriness="0" clusteriness_rank="4" locality="0" distance-to-known="99999" scaled_known="0"/>
  <place rank="19" score="0.2" scaled_type="0.2" scaled_pop="0" scaled_contained_by="0" scaled_contains="0" scaled_near="0" in-cc="ZA" long="28.16039" lat="-26.21891" type="fac" gazref="geonames:994820" name="India" clusteriness="6567.345669" scaled_clusteriness="0" clusteriness_rank="11" locality="0" distance-to-known="99999" scaled_known="0"/>
  <place rank="20" score="0" scaled_type="0" scaled_pop="0" scaled_contained_by="0" scaled_contains="0" scaled_near="0" in-cc="PH" long="120.97849" lat="14.32778" type="road" gazref="geonames:8610431" name="India" clusteriness="3724.674812" scaled_clusteriness="0" clusteriness_rank="7" locality="0" distance-to-known="99999" scaled_known="0"/>
 </placename>
 <placename id="rb4" name="Trans-Himalayan region" altname="Trans-Himalayan"/>
 <placename id="rb5" name="Kinnaur district" altname="Kinnaur">
  <place rank="1" score="0.7871961864" scaled_type="0.4" scaled_pop="0" scaled_contained_by="0" scaled_contains="0" scaled_near="0" in-cc="IN" long="78.41667" lat="31.58333" type="civil" gazref="geonames:1266519" name="Kinnaur" clusteriness="168.1154499" scaled_clusteriness="0.3871961864" clusteriness_rank="1" locality="0" distance-to-known="99999" scaled_known="0"/>
  
 </placename>
 <placename id="rb6" name="Himachal Pradesh">
  <place rank="1" score="1.122250339" scaled_type="0.8" scaled_pop="0" scaled_contained_by="0" scaled_contains="0" scaled_near="0" in-cc="IN" long="77.25" lat="31.91667" type="civila" gazref="geonames:1270101" name="Himachal Pradesh" clusteriness="226.7249535" scaled_clusteriness="0.3222503392" clusteriness_rank="1" locality="0" distance-to-known="99999" scaled_known="0"/>
 </placename>
 <placename id="rb11" name="Hangrang"/>
 <placename id="rb17" name="Kalpa">
  <place rank="1" score="0.9846321965" scaled_type="0.6" scaled_pop="0" scaled_contained_by="0" scaled_contains="0" scaled_near="0" in-cc="IN" long="78.26878" lat="31.53311" type="ppl" gazref="geonames:1268330" name="Kalpa" clusteriness="170.1122571" scaled_clusteriness="0.3846321965" clusteriness_rank="1" locality="0" distance-to-known="99999" scaled_known="0"/>
  <place rank="2" score="0.7528773612" scaled_type="0.6" scaled_pop="0" scaled_contained_by="0" scaled_contains="0" scaled_near="0" in-cc="IN" long="80.43255" lat="24.61672" type="ppl" gazref="geonames:10537520" name="Kalpa" clusteriness="494.5899389" scaled_clusteriness="0.1528773612" clusteriness_rank="2" locality="0" distance-to-known="99999" scaled_known="0"/>
  <place rank="3" score="0.7493166389" scaled_type="0.6" scaled_pop="0" scaled_contained_by="0" scaled_contains="0" scaled_near="0" in-cc="IN" long="84.96273" lat="25.23466" type="ppl" gazref="geonames:10833876" name="Kalpa" clusteriness="502.7669512" scaled_clusteriness="0.1493166389" clusteriness_rank="3" locality="0" distance-to-known="99999" scaled_known="0"/>
  <place rank="4" score="0.7022732031" scaled_type="0.6" scaled_pop="0" scaled_contained_by="0" scaled_contains="0" scaled_near="0" in-cc="IN" long="76.63333" lat="24.55" type="ppl" gazref="geonames:1268331" name="Kālpa" clusteriness="624.3866284" scaled_clusteriness="0.1022732031" clusteriness_rank="4" locality="0" distance-to-known="99999" scaled_known="0"/>
  <place rank="5" score="0.6619720307" scaled_type="0.6" scaled_pop="0" scaled_contained_by="0" scaled_contains="0" scaled_near="0" in-cc="IN" long="84.13375" lat="21.34245" type="ppl" gazref="geonames:11729798" name="Kalpa" clusteriness="751.7197118" scaled_clusteriness="0.0619720307" clusteriness_rank="5" locality="0" distance-to-known="99999" scaled_known="0"/>
  <place rank="6" score="0.6" scaled_type="0.6" scaled_pop="0" scaled_contained_by="0" scaled_contains="0" scaled_near="0" in-cc="BD" long="90.37466" lat="24.76605" type="ppl" gazref="geonames:1199017" name="Kalpa" clusteriness="1110.665536" scaled_clusteriness="0" clusteriness_rank="6" locality="0" distance-to-known="99999" scaled_known="0"/>
  <place rank="7" score="0.6" scaled_type="0.6" scaled_pop="0" scaled_contained_by="0" scaled_contains="0" scaled_near="0" in-cc="UZ" long="68.85213" lat="40.64164" type="ppl" gazref="geonames:11242299" name="Kalpa" clusteriness="1252.174881" scaled_clusteriness="0" clusteriness_rank="7" locality="0" distance-to-known="99999" scaled_known="0"/>
  <place rank="8" score="0.4" scaled_type="0.4" scaled_pop="0" scaled_contained_by="0" scaled_contains="0" scaled_near="0" in-cc="GR" long="22.45" lat="39.38333" type="mtn" gazref="geonames:261301" name="Kálpa" clusteriness="3392.345079" scaled_clusteriness="0" clusteriness_rank="8" locality="0" distance-to-known="99999" scaled_known="0"/>
 </placename>
</placenames>
