<placenames>
 <placename id="rb2" name="Hong Kong Island" contained-by="rb3">
  <place rank="1" score="6.4" scaled_type="0.4" scaled_pop="0" scaled_contained_by="1" scaled_contains="0" scaled_near="0" in-cc="HK" long="114.18829" lat="22.26384" type="rgn" gazref="geonames:11791597" name="Hong Kong Island" clusteriness="3.29338545" scaled_clusteriness="1" clusteriness_rank="2" locality="0" distance-to-known="99999" scaled_known="0"/>
  <place rank="2" score="6.4" scaled_type="0.4" scaled_pop="0" scaled_contained_by="1" scaled_contains="0" scaled_near="0" in-cc="HK" long="114.17885" lat="22.26686" type="rgn" gazref="geonames:1819727" name="Hong Kong" clusteriness="2.609166407" scaled_clusteriness="1" clusteriness_rank="1" locality="0" distance-to-known="99999" scaled_known="0"/>
 </placename>
 <placename id="rb3" name="Hong Kong" contains="rb2">
  <place rank="1" score="7.969177523" scaled_type="1" scaled_pop="0.9691775227" scaled_contained_by="0" scaled_contains="1" scaled_near="0" in-cc="HK" long="114.17469" lat="22.27832" type="pplc" gazref="geonames:1819729" name="Hong Kong" pop="7012738" clusteriness="3.458246124" scaled_clusteriness="1" clusteriness_rank="3" locality="0" distance-to-known="99999" scaled_known="0"/>
  <place rank="2" score="3.869177523" scaled_type="0.4" scaled_pop="0.9691775227" scaled_contained_by="0" scaled_contains="0.3" scaled_near="0" in-cc="HK" long="114.2" lat="22.26667" type="rgn" gazref="geonames:11494322" name="Hong Kong" pop="7012738" clusteriness="4.308038206" scaled_clusteriness="1" clusteriness_rank="5" locality="0" distance-to-known="99999" scaled_known="0"/>
  <place rank="3" score="3.869177523" scaled_type="0.4" scaled_pop="0.9691775227" scaled_contained_by="0" scaled_contains="0.3" scaled_near="0" in-cc="HK" long="114.17885" lat="22.26686" type="rgn" gazref="geonames:1819727" name="Hong Kong" pop="7012738" clusteriness="2.609166407" scaled_clusteriness="1" clusteriness_rank="2" locality="0" distance-to-known="99999" scaled_known="0"/>
  <place rank="4" score="3.869177523" scaled_type="0.4" scaled_pop="0.9691775227" scaled_contained_by="0" scaled_contains="0.3" scaled_near="0" in-cc="HK" long="114.16667" lat="22.25" type="civil" gazref="geonames:1819730" name="Hong Kong" pop="7012738" clusteriness="1.473005841" scaled_clusteriness="1" clusteriness_rank="1" locality="0" distance-to-known="99999" scaled_known="0"/>
  <place rank="5" score="3.669177523" scaled_type="0.2" scaled_pop="0.9691775227" scaled_contained_by="0" scaled_contains="0.3" scaled_near="0" in-cc="HK" long="114.1582" lat="22.28455" type="fac" gazref="geonames:6954449" name="Hong Kong" pop="7012738" clusteriness="3.906322684" scaled_clusteriness="1" clusteriness_rank="4" locality="0" distance-to-known="99999" scaled_known="0"/>
  <place rank="6" score="0.6" scaled_type="0.6" scaled_pop="0" scaled_contained_by="0" scaled_contains="0" scaled_near="0" in-cc="MX" long="-109.93898" lat="22.95805" type="ppl" gazref="geonames:8938815" name="Hong Kong" clusteriness="11421.55473" scaled_clusteriness="0" clusteriness_rank="7" locality="0" distance-to-known="99999" scaled_known="0"/>
  <place rank="7" score="0.6" scaled_type="0.6" scaled_pop="0" scaled_contained_by="0" scaled_contains="0" scaled_near="0" in-cc="GY" long="-57.15676" lat="5.93106" type="ppl" gazref="geonames:3378385" name="Number Seventy-two Hong Kong" clusteriness="12981.87274" scaled_clusteriness="0" clusteriness_rank="8" locality="0" distance-to-known="99999" scaled_known="0"/>
  <place rank="8" score="0.4" scaled_type="0.4" scaled_pop="0" scaled_contained_by="0" scaled_contains="0" scaled_near="0" in-cc="CA" long="-82.53309" lat="47.5501" type="rgn" gazref="geonames:5976558" name="Hong Kong" clusteriness="9355.274254" scaled_clusteriness="0" clusteriness_rank="6" locality="0" distance-to-known="99999" scaled_known="0"/>
 </placename>
 <placename id="rb6" name="Wong Chuk Hang">
  <place rank="1" score="1.6" scaled_type="0.6" scaled_pop="0" scaled_contained_by="0" scaled_contains="0" scaled_near="0" in-cc="HK" long="114.17001" lat="22.23981" type="ppl" gazref="geonames:9172583" name="Wong Chuk Hang" clusteriness="2.108842622" scaled_clusteriness="1" clusteriness_rank="2" locality="0" distance-to-known="99999" scaled_known="0"/>
  <place rank="2" score="1.413932212" scaled_type="0.6" scaled_pop="0" scaled_contained_by="0" scaled_contains="0" scaled_near="0" in-cc="HK" long="114.35" lat="22.38333" type="ppl" gazref="geonames:1818338" name="Wong Chuk Hang" clusteriness="23.55784589" scaled_clusteriness="0.8139322118" clusteriness_rank="3" locality="0" distance-to-known="99999" scaled_known="0"/>
  <place rank="3" score="1.4" scaled_type="0.4" scaled_pop="0" scaled_contained_by="0" scaled_contains="0" scaled_near="0" in-cc="HK" long="114.16632" lat="22.25097" type="mtn" gazref="geonames:1818337" name="Wong Chuk Hang" clusteriness="1.457025609" scaled_clusteriness="1" clusteriness_rank="1" locality="0" distance-to-known="99999" scaled_known="0"/>
 </placename>
 <placename id="rb7" name="Ap Lei Chau">
  <place rank="1" score="1.4" scaled_type="0.4" scaled_pop="0" scaled_contained_by="0" scaled_contains="0" scaled_near="0" in-cc="HK" long="114.15482" lat="22.24129" type="rgn" gazref="geonames:1820039" name="Ap Lei Chau" clusteriness="1.803409892" scaled_clusteriness="1" clusteriness_rank="1" locality="0" distance-to-known="99999" scaled_known="0"/>
 </placename>
 <placename id="rb8" name="Tin Wan">
  <place rank="1" score="1.6" scaled_type="0.6" scaled_pop="0" scaled_contained_by="0" scaled_contains="0" scaled_near="0" in-cc="HK" long="114.14726" lat="22.25113" type="ppl" gazref="geonames:1818557" name="Tin Wan" clusteriness="1.893974653" scaled_clusteriness="1" clusteriness_rank="1" locality="0" distance-to-known="99999" scaled_known="0"/>
 </placename>
 <placename id="rb13" name="Aberdeen Harbour">
  <place rank="1" score="1.6" scaled_type="0.6" scaled_pop="0" scaled_contained_by="0" scaled_contains="0" scaled_near="0" in-cc="HK" long="114.15289" lat="22.24802" type="ppl" gazref="geonames:1819757" name="Aberdeen" clusteriness="1.540377429" scaled_clusteriness="1" clusteriness_rank="1" locality="0" distance-to-known="99999" scaled_known="0"/>
  <place rank="2" score="1.4" scaled_type="0.4" scaled_pop="0" scaled_contained_by="0" scaled_contains="0" scaled_near="0" in-cc="HK" long="114.14659" lat="22.24695" type="water" gazref="geonames:1819756" name="Aberdeen Harbour" clusteriness="1.938318722" scaled_clusteriness="1" clusteriness_rank="2" locality="0" distance-to-known="99999" scaled_known="0"/>
  <place rank="3" score="0.4" scaled_type="0.4" scaled_pop="0" scaled_contained_by="0" scaled_contains="0" scaled_near="0" in-cc="GB" long="-2.09138" lat="57.14476" type="rgn" gazref="geonames:9796442" name="Aberdeen Ferry Port" clusteriness="6685.550759" scaled_clusteriness="0" clusteriness_rank="3" locality="0" distance-to-known="99999" scaled_known="0"/>
 </placename>
 <placename id="rb18" name="United Kingdom">
  <place rank="1" score="2.156266985" scaled_type="1" scaled_pop="1.156266985" scaled_contained_by="0" scaled_contains="0" scaled_near="0" pop="60441457" cc="GB" in-cc="GB" long="-2.69531" lat="54.75844" type="country" gazref="geonames:2635167" name="United Kingdom" clusteriness="6862.794314" scaled_clusteriness="0" clusteriness_rank="3" locality="0" distance-to-known="99999" scaled_known="0"/>
  <place rank="2" score="0.4" scaled_type="0.4" scaled_pop="0" scaled_contained_by="0" scaled_contains="0" scaled_near="0" in-cc="AE" long="55.15977" lat="25.22324" type="rgn" gazref="geonames:11886911" name="United Kingdom" clusteriness="5918.22726" scaled_clusteriness="0" clusteriness_rank="1" locality="0" distance-to-known="99999" scaled_known="0"/>
  <place rank="3" score="0.2" scaled_type="0.2" scaled_pop="0" scaled_contained_by="0" scaled_contains="0" scaled_near="0" in-cc="ZW" long="30.2" lat="-17.06667" type="fac" gazref="geonames:879584" name="United Kingdom" clusteriness="9815.706773" scaled_clusteriness="0" clusteriness_rank="5" locality="0" distance-to-known="99999" scaled_known="0"/>
  <place rank="4" score="0.2" scaled_type="0.2" scaled_pop="0" scaled_contained_by="0" scaled_contains="0" scaled_near="0" in-cc="EG" long="32.30683" lat="31.26205" type="fac" gazref="geonames:9074494" name="Al Mamlakah al Muttaḩidah" clusteriness="7188.081178" scaled_clusteriness="0" clusteriness_rank="4" locality="0" distance-to-known="99999" scaled_known="0"/>
  <place rank="5" score="0.2" scaled_type="0.2" scaled_pop="0" scaled_contained_by="0" scaled_contains="0" scaled_near="0" in-cc="AE" long="54.35103" lat="24.48361" type="fac" gazref="geonames:8052440" name="Brīţāniyā" clusteriness="5998.225227" scaled_clusteriness="0" clusteriness_rank="2" locality="0" distance-to-known="99999" scaled_known="0"/>
 </placename>
</placenames>
