<placenames>
 <placename id="rb2" name="Harbin">
  <place rank="1" score="2.19302625" scaled_type="0.8" scaled_pop="0.9018373581" scaled_contained_by="0" scaled_contains="0" scaled_near="0" in-cc="CN" long="126.65" lat="45.75" type="ppla" gazref="geonames:2037013" name="Harbin" pop="3229883" clusteriness="104.1411133" scaled_clusteriness="0.4911888919" clusteriness_rank="2" locality="0" distance-to-known="99999" scaled_known="0"/>
  <place rank="2" score="0.9577329966" scaled_type="0.4" scaled_pop="0" scaled_contained_by="0" scaled_contains="0" scaled_near="0" in-cc="CN" long="127.96667" lat="45.63333" type="civil" gazref="geonames:2037012" name="Harbin Shi" clusteriness="76.65385606" scaled_clusteriness="0.5577329966" clusteriness_rank="1" locality="0" distance-to-known="99999" scaled_known="0"/>
  <place rank="3" score="0.6" scaled_type="0.6" scaled_pop="0" scaled_contained_by="0" scaled_contains="0" scaled_near="0" in-cc="US" long="-83.85407" lat="33.94761" type="ppl" gazref="geonames:4199110" name="Harbin" clusteriness="7628.748262" scaled_clusteriness="0" clusteriness_rank="5" locality="0" distance-to-known="99999" scaled_known="0"/>
  <place rank="4" score="0.6" scaled_type="0.6" scaled_pop="0" scaled_contained_by="0" scaled_contains="0" scaled_near="0" in-cc="US" long="-84.63744" lat="35.87035" type="ppl" gazref="geonames:4627561" name="Harbin" clusteriness="7504.844768" scaled_clusteriness="0" clusteriness_rank="4" locality="0" distance-to-known="99999" scaled_known="0"/>
  <place rank="5" score="0.6" scaled_type="0.6" scaled_pop="0" scaled_contained_by="0" scaled_contains="0" scaled_near="0" in-cc="US" long="-98.27338" lat="32.11681" type="ppl" gazref="geonames:4696104" name="Harbin" clusteriness="7676.047351" scaled_clusteriness="0" clusteriness_rank="7" locality="0" distance-to-known="99999" scaled_known="0"/>
  <place rank="6" score="0.6" scaled_type="0.6" scaled_pop="0" scaled_contained_by="0" scaled_contains="0" scaled_near="0" in-cc="US" long="-120.51394" lat="45.71596" type="ppl" gazref="geonames:5795786" name="Goodnoe" clusteriness="6207.200514" scaled_clusteriness="0" clusteriness_rank="3" locality="0" distance-to-known="99999" scaled_known="0"/>
  <place rank="7" score="0.2" scaled_type="0.2" scaled_pop="0" scaled_contained_by="0" scaled_contains="0" scaled_near="0" in-cc="ZA" long="28.91504" lat="-30.414" type="fac" gazref="geonames:997911" name="Harbin" clusteriness="7646.456077" scaled_clusteriness="0" clusteriness_rank="6" locality="0" distance-to-known="99999" scaled_known="0"/>
 </placename>
 <placename id="rb3" name="Heilongjiang province" altname="Heilongjiang">
  <place rank="1" score="1.134586395" scaled_type="0.8" scaled_pop="0" scaled_contained_by="0" scaled_contains="0" scaled_near="0" in-cc="CN" long="128" lat="47.75" type="civila" gazref="geonames:2036965" name="Heilongjiang" clusteriness="214.2038192" scaled_clusteriness="0.334586395" clusteriness_rank="1" locality="0" distance-to-known="99999" scaled_known="0"/>
  <place rank="2" score="0.6" scaled_type="0.6" scaled_pop="0" scaled_contained_by="0" scaled_contains="0" scaled_near="0" in-cc="CN" long="103.964" lat="28.3534" type="ppl" gazref="geonames:10143102" name="Heilongjiang" clusteriness="1578.978779" scaled_clusteriness="0" clusteriness_rank="2" locality="0" distance-to-known="99999" scaled_known="0"/>
 </placename>
 <placename id="rb4" name="People's Republic of China" altname="Peoples Republic of China">
  <place rank="1" score="1" scaled_type="1" scaled_pop="0" scaled_contained_by="0" scaled_contains="0" scaled_near="0" in-cc="CN" long="105" lat="35" type="country" gazref="geonames:1814991" name="China" clusteriness="1338.89442" scaled_clusteriness="0" clusteriness_rank="1" locality="0" distance-to-known="99999" scaled_known="0"/>
  
 </placename>
 <placename id="rb6" name="Harbin City" altname="Harbin">
  <place rank="1" score="1.291188892" scaled_type="0.8" scaled_pop="0" scaled_contained_by="0" scaled_contains="0" scaled_near="0" in-cc="CN" long="126.65" lat="45.75" type="ppla" gazref="geonames:2037013" name="Harbin" clusteriness="104.1411133" scaled_clusteriness="0.4911888919" clusteriness_rank="2" locality="0" distance-to-known="99999" scaled_known="0"/>
  <place rank="2" score="0.9577329966" scaled_type="0.4" scaled_pop="0" scaled_contained_by="0" scaled_contains="0" scaled_near="0" in-cc="CN" long="127.96667" lat="45.63333" type="civil" gazref="geonames:2037012" name="Harbin Shi" clusteriness="76.65385606" scaled_clusteriness="0.5577329966" clusteriness_rank="1" locality="0" distance-to-known="99999" scaled_known="0"/>
  <place rank="3" score="0.6" scaled_type="0.6" scaled_pop="0" scaled_contained_by="0" scaled_contains="0" scaled_near="0" in-cc="US" long="-83.85407" lat="33.94761" type="ppl" gazref="geonames:4199110" name="Harbin" clusteriness="7628.748262" scaled_clusteriness="0" clusteriness_rank="5" locality="0" distance-to-known="99999" scaled_known="0"/>
  <place rank="4" score="0.6" scaled_type="0.6" scaled_pop="0" scaled_contained_by="0" scaled_contains="0" scaled_near="0" in-cc="US" long="-120.51394" lat="45.71596" type="ppl" gazref="geonames:5795786" name="Goodnoe" clusteriness="6207.200514" scaled_clusteriness="0" clusteriness_rank="3" locality="0" distance-to-known="99999" scaled_known="0"/>
  <place rank="5" score="0.6" scaled_type="0.6" scaled_pop="0" scaled_contained_by="0" scaled_contains="0" scaled_near="0" in-cc="US" long="-98.27338" lat="32.11681" type="ppl" gazref="geonames:4696104" name="Harbin" clusteriness="7676.047351" scaled_clusteriness="0" clusteriness_rank="7" locality="0" distance-to-known="99999" scaled_known="0"/>
  <place rank="6" score="0.6" scaled_type="0.6" scaled_pop="0" scaled_contained_by="0" scaled_contains="0" scaled_near="0" in-cc="US" long="-84.63744" lat="35.87035" type="ppl" gazref="geonames:4627561" name="Harbin" clusteriness="7504.844768" scaled_clusteriness="0" clusteriness_rank="4" locality="0" distance-to-known="99999" scaled_known="0"/>
  <place rank="7" score="0.2" scaled_type="0.2" scaled_pop="0" scaled_contained_by="0" scaled_contains="0" scaled_near="0" in-cc="ZA" long="28.91504" lat="-30.414" type="fac" gazref="geonames:997911" name="Harbin" clusteriness="7646.456077" scaled_clusteriness="0" clusteriness_rank="6" locality="0" distance-to-known="99999" scaled_known="0"/>
 </placename>
 <placename id="rb7" name="Yanshou County">
  <place rank="1" score="0.9283521774" scaled_type="0.4" scaled_pop="0" scaled_contained_by="0" scaled_contains="0" scaled_near="0" in-cc="CN" long="128.45" lat="45.48333" type="civil" gazref="geonames:2033453" name="Yanshou Xian" clusteriness="87.75980412" scaled_clusteriness="0.5283521774" clusteriness_rank="1" locality="0" distance-to-known="99999" scaled_known="0"/>
 </placename>
 <placename id="rb8" name="Wuchang">
  <place rank="1" score="1.66410447" scaled_type="0.6" scaled_pop="0.5953488393" scaled_contained_by="0" scaled_contains="0" scaled_near="0" in-cc="CN" long="127.16039" lat="44.92754" type="ppl" gazref="geonames:2034141" name="Wuchang" pop="94786" clusteriness="115.4752043" scaled_clusteriness="0.4687556304" clusteriness_rank="1" locality="0" distance-to-known="99999" scaled_known="0"/>
  <place rank="2" score="1.462184435" scaled_type="0.4" scaled_pop="0.5953488393" scaled_contained_by="0" scaled_contains="0" scaled_near="0" in-cc="CN" long="127.15217" lat="44.91501" type="civil" gazref="geonames:12379381" name="Wuchang" pop="94786" clusteriness="116.5007733" scaled_clusteriness="0.466835596" clusteriness_rank="2" locality="0" distance-to-known="99999" scaled_known="0"/>
  <place rank="3" score="1.046079427" scaled_type="0.6" scaled_pop="0" scaled_contained_by="0" scaled_contains="0" scaled_near="0" in-cc="CN" long="128.10999" lat="46.678" type="ppl" gazref="geonames:11564252" name="Wuchang" clusteriness="128.1861622" scaled_clusteriness="0.4460794274" clusteriness_rank="3" locality="0" distance-to-known="99999" scaled_known="0"/>
  <place rank="4" score="0.6" scaled_type="0.6" scaled_pop="0" scaled_contained_by="0" scaled_contains="0" scaled_near="0" in-cc="TW" long="120.32056" lat="23.77088" type="ppl" gazref="geonames:6644932" name="Wuchang" clusteriness="2010.911848" scaled_clusteriness="0" clusteriness_rank="18" locality="0" distance-to-known="99999" scaled_known="0"/>
  <place rank="5" score="0.6" scaled_type="0.6" scaled_pop="0" scaled_contained_by="0" scaled_contains="0" scaled_near="0" in-cc="CN" long="114.88655" lat="30.39607" type="ppl" gazref="geonames:6642286" name="E’zhou" clusteriness="1353.660722" scaled_clusteriness="0" clusteriness_rank="6" locality="0" distance-to-known="99999" scaled_known="0"/>
  <place rank="6" score="0.6" scaled_type="0.6" scaled_pop="0" scaled_contained_by="0" scaled_contains="0" scaled_near="0" in-cc="CN" long="119.81736" lat="28.79444" type="ppl" gazref="geonames:6981765" name="Wuchang" clusteriness="1586.397609" scaled_clusteriness="0" clusteriness_rank="12" locality="0" distance-to-known="99999" scaled_known="0"/>
  <place rank="7" score="0.6" scaled_type="0.6" scaled_pop="0" scaled_contained_by="0" scaled_contains="0" scaled_near="0" in-cc="CN" long="100.752" lat="25.6982" type="ppl" gazref="geonames:10150944" name="Wuchang" clusteriness="1963.357323" scaled_clusteriness="0" clusteriness_rank="17" locality="0" distance-to-known="99999" scaled_known="0"/>
  <place rank="8" score="0.6" scaled_type="0.6" scaled_pop="0" scaled_contained_by="0" scaled_contains="0" scaled_near="0" in-cc="CN" long="120.94873" lat="30.93377" type="ppl" gazref="geonames:7734100" name="Wuchang" clusteriness="1473.925939" scaled_clusteriness="0" clusteriness_rank="7" locality="0" distance-to-known="99999" scaled_known="0"/>
  <place rank="9" score="0.6" scaled_type="0.6" scaled_pop="0" scaled_contained_by="0" scaled_contains="0" scaled_near="0" in-cc="CN" long="114.17592" lat="24.56393" type="ppl" gazref="geonames:7924468" name="Wuchang" clusteriness="1815.374729" scaled_clusteriness="0" clusteriness_rank="16" locality="0" distance-to-known="99999" scaled_known="0"/>
  <place rank="10" score="0.6" scaled_type="0.6" scaled_pop="0" scaled_contained_by="0" scaled_contains="0" scaled_near="0" in-cc="CN" long="103.62904" lat="29.87773" type="ppl" gazref="geonames:6997543" name="Wuchang" clusteriness="1488.440746" scaled_clusteriness="0" clusteriness_rank="10" locality="0" distance-to-known="99999" scaled_known="0"/>
  <place rank="11" score="0.6" scaled_type="0.6" scaled_pop="0" scaled_contained_by="0" scaled_contains="0" scaled_near="0" in-cc="CN" long="114.90031" lat="26.96808" type="ppl" gazref="geonames:9617131" name="Wuchang" clusteriness="1616.231149" scaled_clusteriness="0" clusteriness_rank="13" locality="0" distance-to-known="99999" scaled_known="0"/>
  <place rank="12" score="0.6" scaled_type="0.6" scaled_pop="0" scaled_contained_by="0" scaled_contains="0" scaled_near="0" in-cc="CN" long="113.973" lat="27.2966" type="ppl" gazref="geonames:9874304" name="Wuchang" clusteriness="1576.173276" scaled_clusteriness="0" clusteriness_rank="11" locality="0" distance-to-known="99999" scaled_known="0"/>
  <place rank="13" score="0.6" scaled_type="0.6" scaled_pop="0" scaled_contained_by="0" scaled_contains="0" scaled_near="0" in-cc="CN" long="93.92918" lat="41.89901" type="ppl" gazref="geonames:9193367" name="Wuchang" clusteriness="2034.530439" scaled_clusteriness="0" clusteriness_rank="19" locality="0" distance-to-known="99999" scaled_known="0"/>
  <place rank="14" score="0.6" scaled_type="0.6" scaled_pop="0" scaled_contained_by="0" scaled_contains="0" scaled_near="0" in-cc="CN" long="120.03524" lat="30.26259" type="ppl" gazref="geonames:7679674" name="Wuchang" clusteriness="1488.136515" scaled_clusteriness="0" clusteriness_rank="9" locality="0" distance-to-known="99999" scaled_known="0"/>
  <place rank="15" score="0.6" scaled_type="0.6" scaled_pop="0" scaled_contained_by="0" scaled_contains="0" scaled_near="0" in-cc="CN" long="114.288" lat="26.2391" type="ppl" gazref="geonames:9614419" name="Wuchang" clusteriness="1668.909098" scaled_clusteriness="0" clusteriness_rank="14" locality="0" distance-to-known="99999" scaled_known="0"/>
  <place rank="16" score="0.6" scaled_type="0.6" scaled_pop="0" scaled_contained_by="0" scaled_contains="0" scaled_near="0" in-cc="CN" long="115.70165" lat="32.18719" type="ppl" gazref="geonames:10422134" name="Wuchang" clusteriness="1248.268792" scaled_clusteriness="0" clusteriness_rank="5" locality="0" distance-to-known="99999" scaled_known="0"/>
  <place rank="17" score="0.6" scaled_type="0.6" scaled_pop="0" scaled_contained_by="0" scaled_contains="0" scaled_near="0" in-cc="CN" long="113.712" lat="34.94321" type="ppl" gazref="geonames:10362231" name="Wuchang" clusteriness="1093.71108" scaled_clusteriness="0" clusteriness_rank="4" locality="0" distance-to-known="99999" scaled_known="0"/>
  <place rank="18" score="0.6" scaled_type="0.6" scaled_pop="0" scaled_contained_by="0" scaled_contains="0" scaled_near="0" in-cc="CN" long="104.195" lat="25.6204" type="ppl" gazref="geonames:10158088" name="Wuchang" clusteriness="1795.618446" scaled_clusteriness="0" clusteriness_rank="15" locality="0" distance-to-known="99999" scaled_known="0"/>
  <place rank="19" score="0.6" scaled_type="0.6" scaled_pop="0" scaled_contained_by="0" scaled_contains="0" scaled_near="0" in-cc="CN" long="110.481" lat="18.7832" type="ppl" gazref="geonames:1909805" name="Wuchang" clusteriness="2368.339267" scaled_clusteriness="0" clusteriness_rank="20" locality="0" distance-to-known="99999" scaled_known="0"/>
  <place rank="20" score="0.4" scaled_type="0.4" scaled_pop="0" scaled_contained_by="0" scaled_contains="0" scaled_near="0" in-cc="CN" long="120.035" lat="30.2626" type="civil" gazref="geonames:8630303" name="Wuchang" clusteriness="1488.128121" scaled_clusteriness="0" clusteriness_rank="8" locality="0" distance-to-known="99999" scaled_known="0"/>
 </placename>
 <placename id="rb9" name="Acheng District" altname="Acheng">
  <place rank="1" score="1.104124206" scaled_type="0.6" scaled_pop="0" scaled_contained_by="0" scaled_contains="0" scaled_near="0" in-cc="CN" long="126.95191" lat="45.54558" type="ppl" gazref="geonames:2038679" name="Acheng" clusteriness="98.11865524" scaled_clusteriness="0.5041242063" clusteriness_rank="2" locality="0" distance-to-known="99999" scaled_known="0"/>
  
  <place rank="2" score="0.9086059456" scaled_type="0.4" scaled_pop="0" scaled_contained_by="0" scaled_contains="0" scaled_near="0" in-cc="CN" long="127.18333" lat="45.46667" type="civil" gazref="geonames:2038678" name="Acheng" clusteriness="96.11432245" scaled_clusteriness="0.5086059456" clusteriness_rank="1" locality="0" distance-to-known="99999" scaled_known="0"/>
  <place rank="3" score="0.4" scaled_type="0.4" scaled_pop="0" scaled_contained_by="0" scaled_contains="0" scaled_near="0" in-cc="MR" long="-16.16685" lat="18.75976" type="water" gazref="geonames:2382039" name="Baie d'Achéma" clusteriness="9375.496294" scaled_clusteriness="0" clusteriness_rank="4" locality="0" distance-to-known="99999" scaled_known="0"/>
  <place rank="4" score="0.4" scaled_type="0.4" scaled_pop="0" scaled_contained_by="0" scaled_contains="0" scaled_near="0" in-cc="CN" long="116.049" lat="36.1616" type="civil" gazref="geonames:8721582" name="Acheng" clusteriness="1092.11608" scaled_clusteriness="0" clusteriness_rank="3" locality="0" distance-to-known="99999" scaled_known="0"/>
 </placename>
 <placename id="rb10" name="Bin County"/>
 <placename id="rb11" name="city of Mudanjiang" altname="Mudanjiang">
  <place rank="1" score="0.9696634749" scaled_type="0.6" scaled_pop="0" scaled_contained_by="0" scaled_contains="0" scaled_near="0" in-cc="CN" long="129.62594" lat="44.54804" type="ppl" gazref="geonames:2035715" name="Mudanjiang" clusteriness="182.2523136" scaled_clusteriness="0.3696634749" clusteriness_rank="1" locality="0" distance-to-known="99999" scaled_known="0"/>
  <place rank="2" score="0.8587204035" scaled_type="0.6" scaled_pop="0" scaled_contained_by="0" scaled_contains="0" scaled_near="0" in-cc="CN" long="125.14404" lat="48.45554" type="ppl" gazref="geonames:11576476" name="Mudanjiang" clusteriness="303.7800107" scaled_clusteriness="0.2587204035" clusteriness_rank="3" locality="0" distance-to-known="99999" scaled_known="0"/>
  <place rank="3" score="0.7540375941" scaled_type="0.4" scaled_pop="0" scaled_contained_by="0" scaled_contains="0" scaled_near="0" in-cc="CN" long="129.88333" lat="44.6" type="civil" gazref="geonames:2035713" name="Mudanjiang Shi" clusteriness="195.8505573" scaled_clusteriness="0.3540375941" clusteriness_rank="2" locality="0" distance-to-known="99999" scaled_known="0"/>
 </placename>
 <placename id="rb12" name="city of Shangzhi" altname="Shangzhi"/>
 <placename id="rb13" name="Zhuhe"/>
 <placename id="rb18" name="Yabuli"/>
</placenames>
