<placenames>
 <placename id="rb2" name="Millard County" contained-by="rb3">
  <place rank="1" score="4.119819739" scaled_type="0.4" scaled_pop="0" scaled_contained_by="0.6" scaled_contains="0" scaled_near="0" in-cc="US" long="-113.10046" lat="39.07381" type="civil" gazref="geonames:5543199" name="Millard" clusteriness="36.33795834" scaled_clusteriness="0.7198197387" clusteriness_rank="1" locality="0" distance-to-known="99999" scaled_known="0"/>
 </placename>
 <placename id="rb3" name="Utah" contains="rb2">
  <place rank="1" score="5.204116278" scaled_type="0.8" scaled_pop="0.8770261225" scaled_contained_by="0" scaled_contains="0.6" scaled_near="0" in-cc="US" long="-111.75103" lat="39.25024" type="civila" gazref="geonames:5549030" name="Utah" pop="2427340" clusteriness="88.27133395" scaled_clusteriness="0.5270901552" clusteriness_rank="1" locality="0" distance-to-known="99999" scaled_known="0"/>
  <place rank="2" score="0.8634488003" scaled_type="0.4" scaled_pop="0" scaled_contained_by="0" scaled_contains="0" scaled_near="0" in-cc="US" long="-111.67031" lat="40.11995" type="civil" gazref="geonames:5784025" name="Utah" clusteriness="118.332053" scaled_clusteriness="0.4634488003" clusteriness_rank="2" locality="0" distance-to-known="99999" scaled_known="0"/>
  <place rank="3" score="0.6" scaled_type="0.6" scaled_pop="0" scaled_contained_by="0" scaled_contains="0" scaled_near="0" in-cc="MX" long="-111.73357" lat="29.09131" type="ppl" gazref="geonames:3971121" name="Ezcalqui" clusteriness="1233.46336" scaled_clusteriness="0" clusteriness_rank="6" locality="0" distance-to-known="99999" scaled_known="0"/>
  <place rank="4" score="0.6" scaled_type="0.6" scaled_pop="0" scaled_contained_by="0" scaled_contains="0" scaled_near="0" in-cc="US" long="-78.97642" lat="40.71118" type="ppl" gazref="geonames:5215291" name="Taylorsville" clusteriness="1416.161139" scaled_clusteriness="0" clusteriness_rank="8" locality="0" distance-to-known="99999" scaled_known="0"/>
  <place rank="5" score="0.6" scaled_type="0.6" scaled_pop="0" scaled_contained_by="0" scaled_contains="0" scaled_near="0" in-cc="US" long="-84.89801" lat="39.06089" type="ppl" gazref="geonames:4266190" name="Utah" clusteriness="1218.319946" scaled_clusteriness="0" clusteriness_rank="5" locality="0" distance-to-known="99999" scaled_known="0"/>
  <place rank="6" score="0.6" scaled_type="0.6" scaled_pop="0" scaled_contained_by="0" scaled_contains="0" scaled_near="0" in-cc="US" long="-88.05837" lat="35.59035" type="ppl" gazref="geonames:4664400" name="Utah" clusteriness="1137.471294" scaled_clusteriness="0" clusteriness_rank="4" locality="0" distance-to-known="99999" scaled_known="0"/>
  <place rank="7" score="0.6" scaled_type="0.6" scaled_pop="0" scaled_contained_by="0" scaled_contains="0" scaled_near="0" in-cc="US" long="-90.48791" lat="40.9842" type="ppl" gazref="geonames:4832154" name="Utah" clusteriness="1116.53517" scaled_clusteriness="0" clusteriness_rank="3" locality="0" distance-to-known="99999" scaled_known="0"/>
  <place rank="8" score="0.6" scaled_type="0.6" scaled_pop="0" scaled_contained_by="0" scaled_contains="0" scaled_near="0" in-cc="US" long="-83.5166" lat="41.63338" type="ppl" gazref="geonames:5152805" name="East Toledo" clusteriness="1291.034014" scaled_clusteriness="0" clusteriness_rank="7" locality="0" distance-to-known="99999" scaled_known="0"/>
  <place rank="9" score="0.6" scaled_type="0.6" scaled_pop="0" scaled_contained_by="0" scaled_contains="0" scaled_near="0" in-cc="PG" long="145.01822" lat="-4.63645" type="ppl" gazref="geonames:2084518" name="Utah" clusteriness="11612.09751" scaled_clusteriness="0" clusteriness_rank="10" locality="0" distance-to-known="99999" scaled_known="0"/>
  <place rank="10" score="0.4" scaled_type="0.4" scaled_pop="0" scaled_contained_by="0" scaled_contains="0" scaled_near="0" in-cc="ZA" long="26.71667" lat="-30.2" type="mtn" gazref="geonames:945828" name="Utah" clusteriness="14962.35947" scaled_clusteriness="0" clusteriness_rank="11" locality="0" distance-to-known="99999" scaled_known="0"/>
  <place rank="11" score="0.2" scaled_type="0.2" scaled_pop="0" scaled_contained_by="0" scaled_contains="0" scaled_near="0" in-cc="US" long="-78.97503" lat="40.71256" type="fac" gazref="geonames:5216941" name="Utah" clusteriness="1416.242251" scaled_clusteriness="0" clusteriness_rank="9" locality="0" distance-to-known="99999" scaled_known="0"/>
 </placename>
 <placename id="rb4" name="United States">
  <place rank="1" score="2.294180291" scaled_type="1" scaled_pop="1.294180291" scaled_contained_by="0" scaled_contains="0" scaled_near="0" pop="295734134" cc="US" in-cc="US" long="-98.5" lat="39.76" type="country" gazref="geonames:6252001" name="United States" clusteriness="1057.710183" scaled_clusteriness="0" clusteriness_rank="1" locality="0" distance-to-known="99999" scaled_known="0"/>
 </placename>
 <placename id="rb9" name="Burtner">
  <place rank="1" score="0.6" scaled_type="0.6" scaled_pop="0" scaled_contained_by="0" scaled_contains="0" scaled_near="0" in-cc="US" long="-77.71999" lat="39.52399" type="ppl" gazref="geonames:4349914" name="Burtner" clusteriness="1474.697646" scaled_clusteriness="0" clusteriness_rank="1" locality="0" distance-to-known="99999" scaled_known="0"/>
 </placename>
 <placename id="rb14" name="Sevier River">
  <place rank="1" score="1.115395209" scaled_type="0.4" scaled_pop="0" scaled_contained_by="0" scaled_contains="0" scaled_near="0" in-cc="US" long="-113.13135" lat="39.04912" type="water" gazref="geonames:5546668" name="Sevier River" clusteriness="37.08596484" scaled_clusteriness="0.7153952089" clusteriness_rank="1" locality="0" distance-to-known="99999" scaled_known="0"/>
 </placename>
 <placename id="rb17" name="Sevier Lake">
  <place rank="1" score="1.091578943" scaled_type="0.4" scaled_pop="0" scaled_contained_by="0" scaled_contains="0" scaled_near="0" in-cc="US" long="-113.13856" lat="38.94643" type="water" gazref="geonames:5546660" name="Sevier Lake" clusteriness="41.38491945" scaled_clusteriness="0.6915789429" clusteriness_rank="1" locality="0" distance-to-known="99999" scaled_known="0"/>
  <place rank="2" score="0.4" scaled_type="0.4" scaled_pop="0" scaled_contained_by="0" scaled_contains="0" scaled_near="0" in-cc="US" long="-90.5726" lat="34.12789" type="water" gazref="geonames:4445500" name="Sevier Lake" clusteriness="1133.721937" scaled_clusteriness="0" clusteriness_rank="2" locality="0" distance-to-known="99999" scaled_known="0"/>
 </placename>
 <placename id="rb18" name="Deseret">
  <place rank="1" score="1.269979639" scaled_type="0.6" scaled_pop="0" scaled_contained_by="0" scaled_contains="0" scaled_near="0" in-cc="US" long="-112.65273" lat="39.2869" type="ppl" gazref="geonames:5538109" name="Deseret" clusteriness="45.71310508" scaled_clusteriness="0.669979639" clusteriness_rank="1" locality="0" distance-to-known="99999" scaled_known="0"/>
  <place rank="2" score="1.027369137" scaled_type="0.6" scaled_pop="0" scaled_contained_by="0" scaled_contains="0" scaled_near="0" in-cc="US" long="-111.97049" lat="40.69134" type="ppl" gazref="geonames:5773816" name="Deseret" clusteriness="139.721013" scaled_clusteriness="0.4273691371" clusteriness_rank="2" locality="0" distance-to-known="99999" scaled_known="0"/>
  <place rank="3" score="1.003406762" scaled_type="0.6" scaled_pop="0" scaled_contained_by="0" scaled_contains="0" scaled_near="0" in-cc="US" long="-111.87799" lat="40.87272" type="ppl" gazref="geonames:5773815" name="Deseret" clusteriness="156.0222283" scaled_clusteriness="0.4034067619" clusteriness_rank="3" locality="0" distance-to-known="99999" scaled_known="0"/>
 </placename>
</placenames>
