<placenames>
 <placename id="rb1" name="Lackawanna County" contained-by="rb2">
  <place rank="1" score="3.140132123" scaled_type="0.4" scaled_pop="0" scaled_contained_by="0.5" scaled_contains="0" scaled_near="0" in-cc="US" long="-75.6092" lat="41.43679" type="civil" gazref="geonames:5196674" name="Lackawanna" clusteriness="330.9297061" scaled_clusteriness="0.2401321232" clusteriness_rank="1" locality="0" distance-to-known="99999" scaled_known="0"/>
 </placename>
 <placename id="rb2" name="Pennsylvania" contains="rb1">
  <place rank="1" score="4.552654965" scaled_type="0.8" scaled_pop="1.018968412" scaled_contained_by="0" scaled_contains="0.5" scaled_near="0" in-cc="US" long="-77.7" lat="40.8" type="civila" gazref="geonames:6254927" name="Pennsylvania" pop="12440621" clusteriness="340.899916" scaled_clusteriness="0.2336865529" clusteriness_rank="1" locality="0" distance-to-known="99999" scaled_known="0"/>
  <place rank="2" score="0.6" scaled_type="0.6" scaled_pop="0" scaled_contained_by="0" scaled_contains="0" scaled_near="0" in-cc="US" long="-88.0475" lat="30.87324" type="ppl" gazref="geonames:4082637" name="Pennsylvania" clusteriness="1059.905584" scaled_clusteriness="0" clusteriness_rank="2" locality="0" distance-to-known="99999" scaled_known="0"/>
  <place rank="3" score="0" scaled_type="0" scaled_pop="0" scaled_contained_by="0" scaled_contains="0" scaled_near="0" in-cc="PH" long="120.9029" lat="14.27544" type="road" gazref="geonames:8635939" name="Pennsylvania" clusteriness="9353.398378" scaled_clusteriness="0" clusteriness_rank="3" locality="0" distance-to-known="99999" scaled_known="0"/>
 </placename>
 <placename id="rb3" name="USA" abbrev-for="United States">
  <place rank="1" score="1.054489004" scaled_type="0.6" scaled_pop="0.4544890038" scaled_contained_by="0" scaled_contains="0" scaled_near="0" in-cc="TZ" long="36.85" lat="-3.36667" type="ppl" gazref="geonames:149155" name="Usa River" pop="18726" clusteriness="11235.02994" scaled_clusteriness="0" clusteriness_rank="19" locality="0" distance-to-known="99999" scaled_known="0"/>
  <place rank="2" score="1" scaled_type="1" scaled_pop="0" scaled_contained_by="0" scaled_contains="0" scaled_near="0" in-cc="US" long="-98.5" lat="39.76" type="country" gazref="geonames:6252001" name="United States" clusteriness="1188.689698" scaled_clusteriness="0" clusteriness_rank="3" locality="0" distance-to-known="99999" scaled_known="0"/>
  <place rank="3" score="0.6633690093" scaled_type="0.6" scaled_pop="0" scaled_contained_by="0" scaled_contains="0" scaled_near="0" in-cc="US" long="-80.58158" lat="35.40888" type="ppl" gazref="geonames:4461574" name="Concord" clusteriness="746.8991777" scaled_clusteriness="0.06336900935" clusteriness_rank="1" locality="0" distance-to-known="99999" scaled_known="0"/>
  <place rank="4" score="0.6" scaled_type="0.6" scaled_pop="0" scaled_contained_by="0" scaled_contains="0" scaled_near="0" in-cc="KR" long="126.94282" lat="36.43604" type="ppl" gazref="geonames:12031177" name="Usa" clusteriness="7718.913372" scaled_clusteriness="0" clusteriness_rank="13" locality="0" distance-to-known="99999" scaled_known="0"/>
  <place rank="5" score="0.6" scaled_type="0.6" scaled_pop="0" scaled_contained_by="0" scaled_contains="0" scaled_near="0" in-cc="AF" long="67.53138" lat="33.16859" type="ppl" gazref="geonames:1448756" name="Ūsah" clusteriness="9191.45701" scaled_clusteriness="0" clusteriness_rank="17" locality="0" distance-to-known="99999" scaled_known="0"/>
  <place rank="6" score="0.6" scaled_type="0.6" scaled_pop="0" scaled_contained_by="0" scaled_contains="0" scaled_near="0" in-cc="NG" long="8.95976" lat="7.29268" type="ppl" gazref="geonames:9974580" name="Usa" clusteriness="9083.543764" scaled_clusteriness="0" clusteriness_rank="16" locality="0" distance-to-known="99999" scaled_known="0"/>
  <place rank="7" score="0.6" scaled_type="0.6" scaled_pop="0" scaled_contained_by="0" scaled_contains="0" scaled_near="0" in-cc="BY" long="27.2217" lat="53.7204" type="ppl" gazref="geonames:8019757" name="Usa" clusteriness="7199.682753" scaled_clusteriness="0" clusteriness_rank="9" locality="0" distance-to-known="99999" scaled_known="0"/>
  <place rank="8" score="0.6" scaled_type="0.6" scaled_pop="0" scaled_contained_by="0" scaled_contains="0" scaled_near="0" in-cc="NG" long="6.09748" lat="9.98816" type="ppl" gazref="geonames:2319640" name="Usa" clusteriness="8649.518156" scaled_clusteriness="0" clusteriness_rank="15" locality="0" distance-to-known="99999" scaled_known="0"/>
  <place rank="9" score="0.6" scaled_type="0.6" scaled_pop="0" scaled_contained_by="0" scaled_contains="0" scaled_near="0" in-cc="RU" long="51.24913" lat="65.38942" type="ppl" gazref="geonames:478525" name="Usa" clusteriness="7332.066709" scaled_clusteriness="0" clusteriness_rank="10" locality="0" distance-to-known="99999" scaled_known="0"/>
  <place rank="10" score="0.6" scaled_type="0.6" scaled_pop="0" scaled_contained_by="0" scaled_contains="0" scaled_near="0" in-cc="MZ" long="33.18861" lat="-21.06528" type="ppl" gazref="geonames:1024919" name="Usa" clusteriness="12170.09329" scaled_clusteriness="0" clusteriness_rank="20" locality="0" distance-to-known="99999" scaled_known="0"/>
  <place rank="11" score="0.6" scaled_type="0.6" scaled_pop="0" scaled_contained_by="0" scaled_contains="0" scaled_near="0" in-cc="PG" long="143.73333" lat="-6.33333" type="ppl" gazref="geonames:2084536" name="Usa" clusteriness="10069.42324" scaled_clusteriness="0" clusteriness_rank="18" locality="0" distance-to-known="99999" scaled_known="0"/>
  <place rank="12" score="0.6" scaled_type="0.6" scaled_pop="0" scaled_contained_by="0" scaled_contains="0" scaled_near="0" in-cc="JP" long="133.45" lat="33.45" type="ppl" gazref="geonames:1849168" name="Usa" clusteriness="7720.664593" scaled_clusteriness="0" clusteriness_rank="14" locality="0" distance-to-known="99999" scaled_known="0"/>
  <place rank="13" score="0.6" scaled_type="0.6" scaled_pop="0" scaled_contained_by="0" scaled_contains="0" scaled_near="0" in-cc="RU" long="33.15556" lat="53.73556" type="ppl" gazref="geonames:816646" name="Usa" clusteriness="7506.522694" scaled_clusteriness="0" clusteriness_rank="11" locality="0" distance-to-known="99999" scaled_known="0"/>
  
  <place rank="14" score="0.6" scaled_type="0.6" scaled_pop="0" scaled_contained_by="0" scaled_contains="0" scaled_near="0" in-cc="BY" long="26.5576" lat="53.8091" type="ppl" gazref="geonames:8072150" name="Usa" clusteriness="7158.50102" scaled_clusteriness="0" clusteriness_rank="8" locality="0" distance-to-known="99999" scaled_known="0"/>
  <place rank="15" score="0.6" scaled_type="0.6" scaled_pop="0" scaled_contained_by="0" scaled_contains="0" scaled_near="0" in-cc="BY" long="26.4976" lat="53.8417" type="ppl" gazref="geonames:8072116" name="Usa" clusteriness="7153.188155" scaled_clusteriness="0" clusteriness_rank="7" locality="0" distance-to-known="99999" scaled_known="0"/>
  <place rank="16" score="0.4" scaled_type="0.4" scaled_pop="0" scaled_contained_by="0" scaled_contains="0" scaled_near="0" in-cc="FR" long="1.21574" lat="49.305" type="rgn" gazref="geonames:11548647" name="usa" clusteriness="5866.598151" scaled_clusteriness="0" clusteriness_rank="4" locality="0" distance-to-known="99999" scaled_known="0"/>
  <place rank="17" score="0.4" scaled_type="0.4" scaled_pop="0" scaled_contained_by="0" scaled_contains="0" scaled_near="0" in-cc="DE" long="8.78491" lat="50.32005" type="water" gazref="geonames:2818119" name="Usa" clusteriness="6314.137025" scaled_clusteriness="0" clusteriness_rank="6" locality="0" distance-to-known="99999" scaled_known="0"/>
  <place rank="18" score="0.4" scaled_type="0.4" scaled_pop="0" scaled_contained_by="0" scaled_contains="0" scaled_near="0" in-cc="MK" long="21.03167" lat="41.80917" type="rgn" gazref="geonames:8621301" name="Uša" clusteriness="7612.580914" scaled_clusteriness="0" clusteriness_rank="12" locality="0" distance-to-known="99999" scaled_known="0"/>
  <place rank="19" score="0.4" scaled_type="0.4" scaled_pop="0" scaled_contained_by="0" scaled_contains="0" scaled_near="0" in-cc="FR" long="1.21574" lat="49.305" type="rgn" gazref="geonames:11548697" name="usa" clusteriness="5866.598151" scaled_clusteriness="0" clusteriness_rank="5" locality="0" distance-to-known="99999" scaled_known="0"/>
  <place rank="20" score="0.2610977678" scaled_type="0.2" scaled_pop="0" scaled_contained_by="0" scaled_contains="0" scaled_near="0" in-cc="US" long="-80.71097" lat="35.38555" type="fac" gazref="geonames:6298496" name="Concord-Padgett Regional Airport" clusteriness="754.7523334" scaled_clusteriness="0.06109776782" clusteriness_rank="2" locality="0" distance-to-known="99999" scaled_known="0"/>
 </placename>
 <placename id="rb4" name="city of Scranton" altname="Scranton">
  <place rank="1" score="0.6426028442" scaled_type="0.4" scaled_pop="0" scaled_contained_by="0" scaled_contains="0" scaled_near="0" in-cc="US" long="-75.66491" lat="41.40437" type="civil" gazref="geonames:5211312" name="City of Scranton" clusteriness="327.1856982" scaled_clusteriness="0.2426028442" clusteriness_rank="1" locality="0" distance-to-known="99999" scaled_known="0"/>
  <place rank="2" score="0.4" scaled_type="0.4" scaled_pop="0" scaled_contained_by="0" scaled_contains="0" scaled_near="0" in-cc="US" long="-94.54905" lat="42.01909" type="civil" gazref="geonames:7317358" name="City of Scranton" clusteriness="1118.367349" scaled_clusteriness="0" clusteriness_rank="4" locality="0" distance-to-known="99999" scaled_known="0"/>
  <place rank="3" score="0.4" scaled_type="0.4" scaled_pop="0" scaled_contained_by="0" scaled_contains="0" scaled_near="0" in-cc="US" long="-93.53895" lat="35.36061" type="civil" gazref="geonames:7170796" name="City of Scranton" clusteriness="1023.043705" scaled_clusteriness="0" clusteriness_rank="2" locality="0" distance-to-known="99999" scaled_known="0"/>
  <place rank="4" score="0.4" scaled_type="0.4" scaled_pop="0" scaled_contained_by="0" scaled_contains="0" scaled_near="0" in-cc="US" long="-95.74034" lat="38.77776" type="civil" gazref="geonames:7317359" name="City of Scranton" clusteriness="1039.898047" scaled_clusteriness="0" clusteriness_rank="3" locality="0" distance-to-known="99999" scaled_known="0"/>
  <place rank="5" score="0.4" scaled_type="0.4" scaled_pop="0" scaled_contained_by="0" scaled_contains="0" scaled_near="0" in-cc="US" long="-103.14272" lat="46.14669" type="civil" gazref="geonames:5692012" name="City of Scranton" clusteriness="1730.501069" scaled_clusteriness="0" clusteriness_rank="5" locality="0" distance-to-known="99999" scaled_known="0"/>
 </placename>
 <placename id="rb6" name="north of Clarks Summit"/>
 <placename id="rb8" name="Abington"/>
</placenames>
